{"name": "Abbeyard", "shim": "abbeyard", "rating_safety": 10, "coords": {"lat": -37.0213248, "lng": 146.7640653}, "rating_affordability": 1, "population": 12345, "outlinks": {"domain": "http://www.google.com", "realestate": "http://www.google.com"}}
{"name": "Abbotsford", "shim": "abbotsford", "rating_safety": 1, "coords": {"lat": -37.803, "lng": 145.002}, "rating_affordability": 9, "population": 12345, "outlinks": {"domain": "http://www.google.com", "realestate": "http://www.google.com"}}
{"name": "Aberfeldie", "shim": "aberfeldie", "rating_safety": 2, "coords": {"lat": -37.762, "lng": 144.901}, "rating_affordability": 9, "population": 12345, "outlinks": {"domain": "http://www.google.com", "realestate": "http://www.google.com"}}
{"name": "Aberfeldy", "shim": "aberfeldy", "rating_safety": 10, "coords": {"lat": -37.7206048, "lng": 146.3885869}, "rating_affordability": 1, "population": 12345, "outlinks": {"domain": "http://www.google.com", "realestate": "http://www.google.com"}}
{"name": "Acheron", "shim": "acheron", "rating_safety": 8, "coords": {"lat": -37.2729634, "lng": 145.7040584}, "rating_affordability": 1, "population": 12345, "outlinks": {"domain": "http://www.google.com", "realestate": "http://www.google.com"}}
{"name": "Ada", "shim": "ada", "rating_safety": 10, "coords": {"lat": -37.837264, "lng": 144.993145}, "rating_affordability": 1, "population": 12345, "outlinks": {"domain": "http://www.google.com", "realestate": "http://www.google.com"}}
{"name": "Adams Estate", "shim": "adams-estate", "rating_safety": 9, "coords": {"lat": -38.4256676, "lng": 145.5323505}, "rating_affordability": 1, "population": 12345, "outlinks": {"domain": "http://www.google.com", "realestate": "http://www.google.com"}}
{"name": "Addington", "shim": "addington", "rating_safety": 9, "coords": {"lat": -37.383333, "lng": 143.683333}, "rating_affordability": 1, "population": 12345, "outlinks": {"domain": "http://www.google.com", "realestate": "http://www.google.com"}}
{"name": "Adelaide Lead", "shim": "adelaide-lead", "rating_safety": 9, "coords": {"lat": -37.0838207, "lng": 143.679125}, "rating_affordability": 1, "population": 12345, "outlinks": {"domain": "http://www.google.com", "realestate": "http://www.google.com"}}
{"name": "Agnes", "shim": "agnes", "rating_safety": 10, "coords": {"lat": -38.6577757, "lng": 146.3819528}, "rating_affordability": 1, "population": 12345, "outlinks": {"domain": "http://www.google.com", "realestate": "http://www.google.com"}}
{"name": "Aintree", "shim": "aintree", "rating_safety": 10, "coords": {"lat": -37.7253096, "lng": 144.6580197}, "rating_affordability": 1, "population": 12345, "outlinks": {"domain": "http://www.google.com", "realestate": "http://www.google.com"}}
{"name": "Aire Valley", "shim": "aire-valley", "rating_safety": 10, "coords": {"lat": -38.6922736, "lng": 143.5659848}, "rating_affordability": 1, "population": 12345, "outlinks": {"domain": "http://www.google.com", "realestate": "http://www.google.com"}}
{"name": "Aireys Inlet", "shim": "aireys-inlet", "rating_safety": 4, "coords": {"lat": -38.461511, "lng": 144.1057661}, "rating_affordability": 8, "population": 12345, "outlinks": {"domain": "http://www.google.com", "realestate": "http://www.google.com"}}
{"name": "Airly", "shim": "airly", "rating_safety": 8, "coords": {"lat": -38.0279745, "lng": 147.1149275}, "rating_affordability": 1, "population": 12345, "outlinks": {"domain": "http://www.google.com", "realestate": "http://www.google.com"}}
{"name": "Airport West", "shim": "airport-west", "rating_safety": 1, "coords": {"lat": -37.724, "lng": 144.879}, "rating_affordability": 8, "population": 12345, "outlinks": {"domain": "http://www.google.com", "realestate": "http://www.google.com"}}
{"name": "Albacutya", "shim": "albacutya", "rating_safety": 10, "coords": {"lat": -35.7395619, "lng": 141.9661831}, "rating_affordability": 1, "population": 12345, "outlinks": {"domain": "http://www.google.com", "realestate": "http://www.google.com"}}
{"name": "Albanvale", "shim": "albanvale", "rating_safety": 2, "coords": {"lat": -37.746, "lng": 144.765}, "rating_affordability": 7, "population": 12345, "outlinks": {"domain": "http://www.google.com", "realestate": "http://www.google.com"}}
{"name": "Albert Park", "shim": "albert-park", "rating_safety": 2, "coords": {"lat": -37.842, "lng": 144.95}, "rating_affordability": 9, "population": 12345, "outlinks": {"domain": "http://www.google.com", "realestate": "http://www.google.com"}}
{"name": "Alberton West", "shim": "alberton-west", "rating_safety": 8, "coords": {"lat": -38.6, "lng": 146.590556}, "rating_affordability": 1, "population": 12345, "outlinks": {"domain": "http://www.google.com", "realestate": "http://www.google.com"}}
{"name": "Alberton", "shim": "alberton", "rating_safety": 5, "coords": {"lat": -38.616667, "lng": 146.666667}, "rating_affordability": 10, "population": 12345, "outlinks": {"domain": "http://www.google.com", "realestate": "http://www.google.com"}}
{"name": "Albion", "shim": "albion", "rating_safety": 10, "coords": {"lat": -37.746, "lng": 144.765}, "rating_affordability": 4, "population": 12345, "outlinks": {"domain": "http://www.google.com", "realestate": "http://www.google.com"}}
{"name": "Alexandra", "shim": "alexandra", "rating_safety": 10, "coords": {"lat": -37.746, "lng": 144.765}, "rating_affordability": 4, "population": 12345, "outlinks": {"domain": "http://www.google.com", "realestate": "http://www.google.com"}}
{"name": "Alfredton", "shim": "alfredton", "rating_safety": 1, "coords": {"lat": -37.555, "lng": 143.8}, "rating_affordability": 7, "population": 12345, "outlinks": {"domain": "http://www.google.com", "realestate": "http://www.google.com"}}
{"name": "Allambee Reserve", "shim": "allambee-reserve", "rating_safety": 10, "coords": {"lat": -38.3022517, "lng": 146.0528724}, "rating_affordability": 1, "population": 12345, "outlinks": {"domain": "http://www.google.com", "realestate": "http://www.google.com"}}
{"name": "Allambee South", "shim": "allambee-south", "rating_safety": 8, "coords": {"lat": -38.3485607, "lng": 146.1086461}, "rating_affordability": 1, "population": 12345, "outlinks": {"domain": "http://www.google.com", "realestate": "http://www.google.com"}}
{"name": "Allambee", "shim": "allambee", "rating_safety": 10, "coords": {"lat": -38.2905436, "lng": 146.0196656}, "rating_affordability": 1, "population": 12345, "outlinks": {"domain": "http://www.google.com", "realestate": "http://www.google.com"}}
{"name": "Allans Flat", "shim": "allans-flat", "rating_safety": 6, "coords": {"lat": -36.2870441, "lng": 146.9263742}, "rating_affordability": 6, "population": 12345, "outlinks": {"domain": "http://www.google.com", "realestate": "http://www.google.com"}}
{"name": "Allansford", "shim": "allansford", "rating_safety": 3, "coords": {"lat": -38.386111, "lng": 142.593056}, "rating_affordability": 5, "population": 12345, "outlinks": {"domain": "http://www.google.com", "realestate": "http://www.google.com"}}
{"name": "Allendale", "shim": "allendale", "rating_safety": 10, "coords": {"lat": -37.366667, "lng": 143.933333}, "rating_affordability": 1, "population": 12345, "outlinks": {"domain": "http://www.google.com", "realestate": "http://www.google.com"}}
{"name": "Allestree", "shim": "allestree", "rating_safety": 7, "coords": {"lat": -38.283333, "lng": 141.65}, "rating_affordability": 1, "population": 12345, "outlinks": {"domain": "http://www.google.com", "realestate": "http://www.google.com"}}
{"name": "Alma", "shim": "alma", "rating_safety": 5, "coords": {"lat": -37.027222, "lng": 143.677778}, "rating_affordability": 10, "population": 12345, "outlinks": {"domain": "http://www.google.com", "realestate": "http://www.google.com"}}
{"name": "Almonds", "shim": "almonds", "rating_safety": 10, "coords": {"lat": -36.2442306, "lng": 146.0560088}, "rating_affordability": 1, "population": 12345, "outlinks": {"domain": "http://www.google.com", "realestate": "http://www.google.com"}}
{"name": "Almurta", "shim": "almurta", "rating_safety": 7, "coords": {"lat": -38.4723141, "lng": 145.6211838}, "rating_affordability": 1, "population": 12345, "outlinks": {"domain": "http://www.google.com", "realestate": "http://www.google.com"}}
{"name": "Alphington", "shim": "alphington", "rating_safety": 2, "coords": {"lat": -37.78, "lng": 145.023}, "rating_affordability": 9, "population": 12345, "outlinks": {"domain": "http://www.google.com", "realestate": "http://www.google.com"}}
{"name": "Altona Meadows", "shim": "altona-meadows", "rating_safety": 1, "coords": {"lat": -37.875, "lng": 144.782}, "rating_affordability": 7, "population": 12345, "outlinks": {"domain": "http://www.google.com", "realestate": "http://www.google.com"}}
{"name": "Altona North", "shim": "altona-north", "rating_safety": 1, "coords": {"lat": -37.841, "lng": 144.849}, "rating_affordability": 9, "population": 12345, "outlinks": {"domain": "http://www.google.com", "realestate": "http://www.google.com"}}
{"name": "Altona", "shim": "altona", "rating_safety": 10, "coords": {"lat": -38.6, "lng": 146.590556}, "rating_affordability": 8, "population": 12345, "outlinks": {"domain": "http://www.google.com", "realestate": "http://www.google.com"}}
{"name": "Alvie", "shim": "alvie", "rating_safety": 6, "coords": {"lat": -38.244444, "lng": 143.515556}, "rating_affordability": 1, "population": 12345, "outlinks": {"domain": "http://www.google.com", "realestate": "http://www.google.com"}}
{"name": "Amherst", "shim": "amherst", "rating_safety": 8, "coords": {"lat": -37.1560117, "lng": 143.6655871}, "rating_affordability": 1, "population": 12345, "outlinks": {"domain": "http://www.google.com", "realestate": "http://www.google.com"}}
{"name": "Amor", "shim": "amor", "rating_safety": 10, "coords": {"lat": -37.9393673, "lng": 146.4104044}, "rating_affordability": 1, "population": 12345, "outlinks": {"domain": "http://www.google.com", "realestate": "http://www.google.com"}}
{"name": "Amphitheatre", "shim": "amphitheatre", "rating_safety": 5, "coords": {"lat": -37.1878175, "lng": 143.4682535}, "rating_affordability": 5, "population": 12345, "outlinks": {"domain": "http://www.google.com", "realestate": "http://www.google.com"}}
{"name": "Anakie", "shim": "anakie", "rating_safety": 4, "coords": {"lat": -37.916667, "lng": 144.25}, "rating_affordability": 6, "population": 12345, "outlinks": {"domain": "http://www.google.com", "realestate": "http://www.google.com"}}
{"name": "Ancona", "shim": "ancona", "rating_safety": 10, "coords": {"lat": -36.9483706, "lng": 145.8463301}, "rating_affordability": 1, "population": 12345, "outlinks": {"domain": "http://www.google.com", "realestate": "http://www.google.com"}}
{"name": "Anderson", "shim": "anderson", "rating_safety": 9, "coords": {"lat": -38.5227147, "lng": 145.4526995}, "rating_affordability": 1, "population": 12345, "outlinks": {"domain": "http://www.google.com", "realestate": "http://www.google.com"}}
{"name": "Anglers Rest", "shim": "anglers-rest", "rating_safety": 8, "coords": {"lat": -36.9939045, "lng": 147.4819571}, "rating_affordability": 1, "population": 12345, "outlinks": {"domain": "http://www.google.com", "realestate": "http://www.google.com"}}
{"name": "Anglesea", "shim": "anglesea", "rating_safety": 2, "coords": {"lat": -38.4096639, "lng": 144.1825171}, "rating_affordability": 8, "population": 12345, "outlinks": {"domain": "http://www.google.com", "realestate": "http://www.google.com"}}
{"name": "Annuello", "shim": "annuello", "rating_safety": 9, "coords": {"lat": -34.9069376, "lng": 142.8676911}, "rating_affordability": 1, "population": 12345, "outlinks": {"domain": "http://www.google.com", "realestate": "http://www.google.com"}}
{"name": "Antwerp", "shim": "antwerp", "rating_safety": 9, "coords": {"lat": -36.2838951, "lng": 142.0251828}, "rating_affordability": 1, "population": 12345, "outlinks": {"domain": "http://www.google.com", "realestate": "http://www.google.com"}}
{"name": "Apollo Bay", "shim": "apollo-bay", "rating_safety": 3, "coords": {"lat": -38.75, "lng": 143.65}, "rating_affordability": 5, "population": 12345, "outlinks": {"domain": "http://www.google.com", "realestate": "http://www.google.com"}}
{"name": "Appin South", "shim": "appin-south", "rating_safety": 10, "coords": {"lat": -35.9137268, "lng": 143.8831737}, "rating_affordability": 1, "population": 12345, "outlinks": {"domain": "http://www.google.com", "realestate": "http://www.google.com"}}
{"name": "Appin", "shim": "appin", "rating_safety": 10, "coords": {"lat": -35.8847165, "lng": 143.8522489}, "rating_affordability": 1, "population": 12345, "outlinks": {"domain": "http://www.google.com", "realestate": "http://www.google.com"}}
{"name": "Apsley", "shim": "apsley", "rating_safety": 7, "coords": {"lat": -36.9684704, "lng": 141.0829427}, "rating_affordability": 3, "population": 12345, "outlinks": {"domain": "http://www.google.com", "realestate": "http://www.google.com"}}
{"name": "Arapiles", "shim": "arapiles", "rating_safety": 10, "coords": {"lat": -36.7168536, "lng": 141.8782814}, "rating_affordability": 1, "population": 12345, "outlinks": {"domain": "http://www.google.com", "realestate": "http://www.google.com"}}
{"name": "Ararat", "shim": "ararat", "rating_safety": 1, "coords": {"lat": -37.2846464, "lng": 142.9316441}, "rating_affordability": 4, "population": 12345, "outlinks": {"domain": "http://www.google.com", "realestate": "http://www.google.com"}}
{"name": "Arawata", "shim": "arawata", "rating_safety": 9, "coords": {"lat": -38.3950636, "lng": 145.8892336}, "rating_affordability": 4, "population": 12345, "outlinks": {"domain": "http://www.google.com", "realestate": "http://www.google.com"}}
{"name": "Arbuckle", "shim": "arbuckle", "rating_safety": 10, "coords": {"lat": -37.3690265, "lng": 146.8291589}, "rating_affordability": 1, "population": 12345, "outlinks": {"domain": "http://www.google.com", "realestate": "http://www.google.com"}}
{"name": "Arcadia South", "shim": "arcadia-south", "rating_safety": 10, "coords": {"lat": -36.5735787, "lng": 145.3520475}, "rating_affordability": 1, "population": 12345, "outlinks": {"domain": "http://www.google.com", "realestate": "http://www.google.com"}}
{"name": "Arcadia", "shim": "arcadia", "rating_safety": 5, "coords": {"lat": -36.5315858, "lng": 145.3456866}, "rating_affordability": 1, "population": 12345, "outlinks": {"domain": "http://www.google.com", "realestate": "http://www.google.com"}}
{"name": "Archdale Junction", "shim": "archdale-junction", "rating_safety": 10, "coords": {"lat": -36.8725115, "lng": 143.5147379}, "rating_affordability": 1, "population": 12345, "outlinks": {"domain": "http://www.google.com", "realestate": "http://www.google.com"}}
{"name": "Archdale", "shim": "archdale", "rating_safety": 8, "coords": {"lat": -36.8345009, "lng": 143.5307957}, "rating_affordability": 1, "population": 12345, "outlinks": {"domain": "http://www.google.com", "realestate": "http://www.google.com"}}
{"name": "Archerton", "shim": "archerton", "rating_safety": 10, "coords": {"lat": -36.8970666, "lng": 146.2620743}, "rating_affordability": 1, "population": 12345, "outlinks": {"domain": "http://www.google.com", "realestate": "http://www.google.com"}}
{"name": "Archies Creek", "shim": "archies-creek", "rating_safety": 6, "coords": {"lat": -38.548056, "lng": 145.563611}, "rating_affordability": 1, "population": 12345, "outlinks": {"domain": "http://www.google.com", "realestate": "http://www.google.com"}}
{"name": "Ardeer", "shim": "ardeer", "rating_safety": 2, "coords": {"lat": -37.7776716, "lng": 144.7988921}, "rating_affordability": 7, "population": 12345, "outlinks": {"domain": "http://www.google.com", "realestate": "http://www.google.com"}}
{"name": "Ardmona", "shim": "ardmona", "rating_safety": 4, "coords": {"lat": -36.383333, "lng": 145.3}, "rating_affordability": 10, "population": 12345, "outlinks": {"domain": "http://www.google.com", "realestate": "http://www.google.com"}}
{"name": "Areegra", "shim": "areegra", "rating_safety": 9, "coords": {"lat": -36.2803801, "lng": 142.7065456}, "rating_affordability": 1, "population": 12345, "outlinks": {"domain": "http://www.google.com", "realestate": "http://www.google.com"}}
{"name": "Argyle", "shim": "argyle", "rating_safety": 7, "coords": {"lat": -36.9470859, "lng": 144.7227565}, "rating_affordability": 7, "population": 12345, "outlinks": {"domain": "http://www.google.com", "realestate": "http://www.google.com"}}
{"name": "Armadale", "shim": "armadale", "rating_safety": 10, "coords": {"lat": -37.781, "lng": 144.8145}, "rating_affordability": 9, "population": 12345, "outlinks": {"domain": "http://www.google.com", "realestate": "http://www.google.com"}}
{"name": "Armstrong Creek", "shim": "armstrong-creek", "rating_safety": 2, "coords": {"lat": -38.2372957, "lng": 144.3740483}, "rating_affordability": 8, "population": 12345, "outlinks": {"domain": "http://www.google.com", "realestate": "http://www.google.com"}}
{"name": "Armstrong", "shim": "armstrong", "rating_safety": 6, "coords": {"lat": -37.2112639, "lng": 142.8734706}, "rating_affordability": 1, "population": 12345, "outlinks": {"domain": "http://www.google.com", "realestate": "http://www.google.com"}}
{"name": "Arnold West", "shim": "arnold-west", "rating_safety": 9, "coords": {"lat": -36.6848161, "lng": 143.7816296}, "rating_affordability": 1, "population": 12345, "outlinks": {"domain": "http://www.google.com", "realestate": "http://www.google.com"}}
{"name": "Arnold", "shim": "arnold", "rating_safety": 8, "coords": {"lat": -36.6723618, "lng": 143.8186485}, "rating_affordability": 1, "population": 12345, "outlinks": {"domain": "http://www.google.com", "realestate": "http://www.google.com"}}
{"name": "Arthurs Creek", "shim": "arthurs-creek", "rating_safety": 5, "coords": {"lat": -37.583333, "lng": 145.2}, "rating_affordability": 10, "population": 12345, "outlinks": {"domain": "http://www.google.com", "realestate": "http://www.google.com"}}
{"name": "Arthurs Seat", "shim": "arthurs-seat", "rating_safety": 4, "coords": {"lat": -38.352, "lng": 144.953}, "rating_affordability": 8, "population": 12345, "outlinks": {"domain": "http://www.google.com", "realestate": "http://www.google.com"}}
{"name": "Ascot Vale", "shim": "ascot-vale", "rating_safety": 1, "coords": {"lat": -37.779, "lng": 144.919}, "rating_affordability": 9, "population": 12345, "outlinks": {"domain": "http://www.google.com", "realestate": "http://www.google.com"}}
{"name": "Ascot", "shim": "ascot", "rating_safety": 5, "coords": {"lat": -36.711109, "lng": 144.332462}, "rating_affordability": 1, "population": 12345, "outlinks": {"domain": "http://www.google.com", "realestate": "http://www.google.com"}}
{"name": "Ashbourne", "shim": "ashbourne", "rating_safety": 6, "coords": {"lat": -37.386944, "lng": 144.446111}, "rating_affordability": 1, "population": 12345, "outlinks": {"domain": "http://www.google.com", "realestate": "http://www.google.com"}}
{"name": "Ashburton", "shim": "ashburton", "rating_safety": 2, "coords": {"lat": -37.866944, "lng": 145.083056}, "rating_affordability": 9, "population": 12345, "outlinks": {"domain": "http://www.google.com", "realestate": "http://www.google.com"}}
{"name": "Ashwood", "shim": "ashwood", "rating_safety": 1, "coords": {"lat": -37.867, "lng": 145.103}, "rating_affordability": 9, "population": 12345, "outlinks": {"domain": "http://www.google.com", "realestate": "http://www.google.com"}}
{"name": "Aspendale Gardens", "shim": "aspendale-gardens", "rating_safety": 2, "coords": {"lat": -38.022778, "lng": 145.118889}, "rating_affordability": 9, "population": 12345, "outlinks": {"domain": "http://www.google.com", "realestate": "http://www.google.com"}}
{"name": "Aspendale", "shim": "aspendale", "rating_safety": 2, "coords": {"lat": -38.025, "lng": 145.104}, "rating_affordability": 9, "population": 12345, "outlinks": {"domain": "http://www.google.com", "realestate": "http://www.google.com"}}
{"name": "Athlone", "shim": "athlone", "rating_safety": 8, "coords": {"lat": -38.2386755, "lng": 145.758535}, "rating_affordability": 10, "population": 12345, "outlinks": {"domain": "http://www.google.com", "realestate": "http://www.google.com"}}
{"name": "Attwood", "shim": "attwood", "rating_safety": 2, "coords": {"lat": -37.666, "lng": 144.887}, "rating_affordability": 7, "population": 12345, "outlinks": {"domain": "http://www.google.com", "realestate": "http://www.google.com"}}
{"name": "Aubrey", "shim": "aubrey", "rating_safety": 10, "coords": {"lat": -36.259206, "lng": 142.2361379}, "rating_affordability": 1, "population": 12345, "outlinks": {"domain": "http://www.google.com", "realestate": "http://www.google.com"}}
{"name": "Auchmore", "shim": "auchmore", "rating_safety": 10, "coords": {"lat": -36.4377995, "lng": 144.137372}, "rating_affordability": 1, "population": 12345, "outlinks": {"domain": "http://www.google.com", "realestate": "http://www.google.com"}}
{"name": "Avalon", "shim": "avalon", "rating_safety": 4, "coords": {"lat": -38.0568548, "lng": 144.4225874}, "rating_affordability": 1, "population": 12345, "outlinks": {"domain": "http://www.google.com", "realestate": "http://www.google.com"}}
{"name": "Avenel", "shim": "avenel", "rating_safety": 3, "coords": {"lat": -36.9, "lng": 145.233333}, "rating_affordability": 4, "population": 12345, "outlinks": {"domain": "http://www.google.com", "realestate": "http://www.google.com"}}
{"name": "Avoca", "shim": "avoca", "rating_safety": 3, "coords": {"lat": -37.088056, "lng": 143.473889}, "rating_affordability": 4, "population": 12345, "outlinks": {"domain": "http://www.google.com", "realestate": "http://www.google.com"}}
{"name": "Avon Plains", "shim": "avon-plains", "rating_safety": 10, "coords": {"lat": -36.5508207, "lng": 142.9246631}, "rating_affordability": 1, "population": 12345, "outlinks": {"domain": "http://www.google.com", "realestate": "http://www.google.com"}}
{"name": "Avondale Heights", "shim": "avondale-heights", "rating_safety": 1, "coords": {"lat": -37.762, "lng": 144.863}, "rating_affordability": 7, "population": 12345, "outlinks": {"domain": "http://www.google.com", "realestate": "http://www.google.com"}}
{"name": "Avonmore", "shim": "avonmore", "rating_safety": 8, "coords": {"lat": -36.5381814, "lng": 144.533448}, "rating_affordability": 1, "population": 12345, "outlinks": {"domain": "http://www.google.com", "realestate": "http://www.google.com"}}
{"name": "Avonsleigh", "shim": "avonsleigh", "rating_safety": 4, "coords": {"lat": -37.925, "lng": 145.481944}, "rating_affordability": 9, "population": 12345, "outlinks": {"domain": "http://www.google.com", "realestate": "http://www.google.com"}}
{"name": "Axe Creek", "shim": "axe-creek", "rating_safety": 5, "coords": {"lat": -36.8363648, "lng": 144.3938706}, "rating_affordability": 3, "population": 12345, "outlinks": {"domain": "http://www.google.com", "realestate": "http://www.google.com"}}
{"name": "Axedale", "shim": "axedale", "rating_safety": 4, "coords": {"lat": -36.7768707, "lng": 144.5040073}, "rating_affordability": 3, "population": 12345, "outlinks": {"domain": "http://www.google.com", "realestate": "http://www.google.com"}}
{"name": "Ayrford", "shim": "ayrford", "rating_safety": 10, "coords": {"lat": -38.4208758, "lng": 142.8409151}, "rating_affordability": 1, "population": 12345, "outlinks": {"domain": "http://www.google.com", "realestate": "http://www.google.com"}}
{"name": "Bacchus Marsh", "shim": "bacchus-marsh", "rating_safety": 1, "coords": {"lat": -37.6763789, "lng": 144.4463206}, "rating_affordability": 7, "population": 12345, "outlinks": {"domain": "http://www.google.com", "realestate": "http://www.google.com"}}
{"name": "Baddaginnie", "shim": "baddaginnie", "rating_safety": 4, "coords": {"lat": -36.5986338, "lng": 145.8739293}, "rating_affordability": 5, "population": 12345, "outlinks": {"domain": "http://www.google.com", "realestate": "http://www.google.com"}}
{"name": "Badger Creek", "shim": "badger-creek", "rating_safety": 3, "coords": {"lat": -37.685, "lng": 145.538}, "rating_affordability": 7, "population": 12345, "outlinks": {"domain": "http://www.google.com", "realestate": "http://www.google.com"}}
{"name": "Bael Bael", "shim": "bael-bael", "rating_safety": 10, "coords": {"lat": -35.7156502, "lng": 143.7509641}, "rating_affordability": 1, "population": 12345, "outlinks": {"domain": "http://www.google.com", "realestate": "http://www.google.com"}}
{"name": "Bagshot North", "shim": "bagshot-north", "rating_safety": 10, "coords": {"lat": -36.599462, "lng": 144.4263487}, "rating_affordability": 4, "population": 12345, "outlinks": {"domain": "http://www.google.com", "realestate": "http://www.google.com"}}
{"name": "Bagshot", "shim": "bagshot", "rating_safety": 6, "coords": {"lat": -36.6736721, "lng": 144.3870348}, "rating_affordability": 1, "population": 12345, "outlinks": {"domain": "http://www.google.com", "realestate": "http://www.google.com"}}
{"name": "Bahgallah", "shim": "bahgallah", "rating_safety": 9, "coords": {"lat": -37.6660935, "lng": 141.337186}, "rating_affordability": 1, "population": 12345, "outlinks": {"domain": "http://www.google.com", "realestate": "http://www.google.com"}}
{"name": "Bailieston", "shim": "bailieston", "rating_safety": 7, "coords": {"lat": -36.7650657, "lng": 145.0541611}, "rating_affordability": 1, "population": 12345, "outlinks": {"domain": "http://www.google.com", "realestate": "http://www.google.com"}}
{"name": "Bairnsdale", "shim": "bairnsdale", "rating_safety": 1, "coords": {"lat": -37.833333, "lng": 147.616667}, "rating_affordability": 5, "population": 12345, "outlinks": {"domain": "http://www.google.com", "realestate": "http://www.google.com"}}
{"name": "Bakery Hill", "shim": "bakery-hill", "rating_safety": 5, "coords": {"lat": -37.563, "lng": 143.866}, "rating_affordability": 5, "population": 12345, "outlinks": {"domain": "http://www.google.com", "realestate": "http://www.google.com"}}
{"name": "Balaclava", "shim": "balaclava", "rating_safety": 10, "coords": {"lat": -37.027222, "lng": 143.677778}, "rating_affordability": 9, "population": 12345, "outlinks": {"domain": "http://www.google.com", "realestate": "http://www.google.com"}}
{"name": "Bald Hills", "shim": "bald-hills", "rating_safety": 6, "coords": {"lat": -37.4432837, "lng": 143.8291682}, "rating_affordability": 1, "population": 12345, "outlinks": {"domain": "http://www.google.com", "realestate": "http://www.google.com"}}
{"name": "Balintore", "shim": "balintore", "rating_safety": 9, "coords": {"lat": -38.2842302, "lng": 143.5689749}, "rating_affordability": 1, "population": 12345, "outlinks": {"domain": "http://www.google.com", "realestate": "http://www.google.com"}}
{"name": "Ballan", "shim": "ballan", "rating_safety": 2, "coords": {"lat": -37.6146129, "lng": 144.2415697}, "rating_affordability": 5, "population": 12345, "outlinks": {"domain": "http://www.google.com", "realestate": "http://www.google.com"}}
{"name": "Ballangeich", "shim": "ballangeich", "rating_safety": 9, "coords": {"lat": -38.1660521, "lng": 142.575836}, "rating_affordability": 1, "population": 12345, "outlinks": {"domain": "http://www.google.com", "realestate": "http://www.google.com"}}
{"name": "Ballapur", "shim": "ballapur", "rating_safety": 10, "coords": {"lat": -35.9721684, "lng": 142.7503873}, "rating_affordability": 1, "population": 12345, "outlinks": {"domain": "http://www.google.com", "realestate": "http://www.google.com"}}
{"name": "Ballarat Central", "shim": "ballarat-central", "rating_safety": 2, "coords": {"lat": -37.5621587, "lng": 143.8502556}, "rating_affordability": 5, "population": 12345, "outlinks": {"domain": "http://www.google.com", "realestate": "http://www.google.com"}}
{"name": "Ballarat East", "shim": "ballarat-east", "rating_safety": 10, "coords": {"lat": -37.78, "lng": 145.023}, "rating_affordability": 5, "population": 12345, "outlinks": {"domain": "http://www.google.com", "realestate": "http://www.google.com"}}
{"name": "Ballarat North", "shim": "ballarat-north", "rating_safety": 10, "coords": {"lat": -37.78, "lng": 145.023}, "rating_affordability": 5, "population": 12345, "outlinks": {"domain": "http://www.google.com", "realestate": "http://www.google.com"}}
{"name": "Ballendella", "shim": "ballendella", "rating_safety": 7, "coords": {"lat": -36.3032416, "lng": 144.6446873}, "rating_affordability": 1, "population": 12345, "outlinks": {"domain": "http://www.google.com", "realestate": "http://www.google.com"}}
{"name": "Balliang East", "shim": "balliang-east", "rating_safety": 6, "coords": {"lat": -37.793087, "lng": 144.4344864}, "rating_affordability": 1, "population": 12345, "outlinks": {"domain": "http://www.google.com", "realestate": "http://www.google.com"}}
{"name": "Balliang", "shim": "balliang", "rating_safety": 5, "coords": {"lat": -37.8622199, "lng": 144.3840601}, "rating_affordability": 6, "population": 12345, "outlinks": {"domain": "http://www.google.com", "realestate": "http://www.google.com"}}
{"name": "Ballyrogan", "shim": "ballyrogan", "rating_safety": 10, "coords": {"lat": -37.4490043, "lng": 143.1288947}, "rating_affordability": 1, "population": 12345, "outlinks": {"domain": "http://www.google.com", "realestate": "http://www.google.com"}}
{"name": "Balmattum", "shim": "balmattum", "rating_safety": 6, "coords": {"lat": -36.7132029, "lng": 145.6543908}, "rating_affordability": 1, "population": 12345, "outlinks": {"domain": "http://www.google.com", "realestate": "http://www.google.com"}}
{"name": "Balmoral", "shim": "balmoral", "rating_safety": 5, "coords": {"lat": -37.2516966, "lng": 141.8235525}, "rating_affordability": 1, "population": 12345, "outlinks": {"domain": "http://www.google.com", "realestate": "http://www.google.com"}}
{"name": "Balnarring Beach", "shim": "balnarring-beach", "rating_safety": 4, "coords": {"lat": -38.3889938, "lng": 145.1182718}, "rating_affordability": 6, "population": 12345, "outlinks": {"domain": "http://www.google.com", "realestate": "http://www.google.com"}}
{"name": "Balnarring", "shim": "balnarring", "rating_safety": 3, "coords": {"lat": -38.371, "lng": 145.118}, "rating_affordability": 7, "population": 12345, "outlinks": {"domain": "http://www.google.com", "realestate": "http://www.google.com"}}
{"name": "Balook", "shim": "balook", "rating_safety": 10, "coords": {"lat": -38.4312045, "lng": 146.5425534}, "rating_affordability": 1, "population": 12345, "outlinks": {"domain": "http://www.google.com", "realestate": "http://www.google.com"}}
{"name": "Balwyn North", "shim": "balwyn-north", "rating_safety": 1, "coords": {"lat": -37.793611, "lng": 145.086389}, "rating_affordability": 9, "population": 12345, "outlinks": {"domain": "http://www.google.com", "realestate": "http://www.google.com"}}
{"name": "Balwyn", "shim": "balwyn", "rating_safety": 1, "coords": {"lat": -37.808889, "lng": 145.078889}, "rating_affordability": 9, "population": 12345, "outlinks": {"domain": "http://www.google.com", "realestate": "http://www.google.com"}}
{"name": "Bamawm Extension", "shim": "bamawm-extension", "rating_safety": 6, "coords": {"lat": -36.2117228, "lng": 144.6069692}, "rating_affordability": 10, "population": 12345, "outlinks": {"domain": "http://www.google.com", "realestate": "http://www.google.com"}}
{"name": "Bamawm", "shim": "bamawm", "rating_safety": 4, "coords": {"lat": -36.2615783, "lng": 144.5971586}, "rating_affordability": 3, "population": 12345, "outlinks": {"domain": "http://www.google.com", "realestate": "http://www.google.com"}}
{"name": "Bambra", "shim": "bambra", "rating_safety": 7, "coords": {"lat": -38.3667365, "lng": 143.9448801}, "rating_affordability": 1, "population": 12345, "outlinks": {"domain": "http://www.google.com", "realestate": "http://www.google.com"}}
{"name": "Bamganie", "shim": "bamganie", "rating_safety": 9, "coords": {"lat": -37.914215, "lng": 143.9872451}, "rating_affordability": 1, "population": 12345, "outlinks": {"domain": "http://www.google.com", "realestate": "http://www.google.com"}}
{"name": "Bandiana", "shim": "bandiana", "rating_safety": 4, "coords": {"lat": -36.1479054, "lng": 146.9269017}, "rating_affordability": 8, "population": 12345, "outlinks": {"domain": "http://www.google.com", "realestate": "http://www.google.com"}}
{"name": "Bangerang", "shim": "bangerang", "rating_safety": 10, "coords": {"lat": -36.1907317, "lng": 142.5333024}, "rating_affordability": 1, "population": 12345, "outlinks": {"domain": "http://www.google.com", "realestate": "http://www.google.com"}}
{"name": "Bangholme", "shim": "bangholme", "rating_safety": 3, "coords": {"lat": -38.049, "lng": 145.166}, "rating_affordability": 3, "population": 12345, "outlinks": {"domain": "http://www.google.com", "realestate": "http://www.google.com"}}
{"name": "Banksia Peninsula", "shim": "banksia-peninsula", "rating_safety": 10, "coords": {"lat": -37.9518395, "lng": 147.6736593}, "rating_affordability": 1, "population": 12345, "outlinks": {"domain": "http://www.google.com", "realestate": "http://www.google.com"}}
{"name": "Bannerton", "shim": "bannerton", "rating_safety": 9, "coords": {"lat": -34.6792687, "lng": 142.8430709}, "rating_affordability": 1, "population": 12345, "outlinks": {"domain": "http://www.google.com", "realestate": "http://www.google.com"}}
{"name": "Bannockburn", "shim": "bannockburn", "rating_safety": 2, "coords": {"lat": -38.05, "lng": 144.166667}, "rating_affordability": 8, "population": 12345, "outlinks": {"domain": "http://www.google.com", "realestate": "http://www.google.com"}}
{"name": "Banyan", "shim": "banyan", "rating_safety": 10, "coords": {"lat": -35.6103603, "lng": 142.8198735}, "rating_affordability": 1, "population": 12345, "outlinks": {"domain": "http://www.google.com", "realestate": "http://www.google.com"}}
{"name": "Banyena", "shim": "banyena", "rating_safety": 10, "coords": {"lat": -36.6112868, "lng": 142.8590647}, "rating_affordability": 1, "population": 12345, "outlinks": {"domain": "http://www.google.com", "realestate": "http://www.google.com"}}
{"name": "Baranduda", "shim": "baranduda", "rating_safety": 3, "coords": {"lat": -36.1933366, "lng": 146.9496305}, "rating_affordability": 7, "population": 12345, "outlinks": {"domain": "http://www.google.com", "realestate": "http://www.google.com"}}
{"name": "Barfold", "shim": "barfold", "rating_safety": 6, "coords": {"lat": -37.091944, "lng": 144.506111}, "rating_affordability": 1, "population": 12345, "outlinks": {"domain": "http://www.google.com", "realestate": "http://www.google.com"}}
{"name": "Baringhup West", "shim": "baringhup-west", "rating_safety": 10, "coords": {"lat": -36.9792699, "lng": 143.9028461}, "rating_affordability": 5, "population": 12345, "outlinks": {"domain": "http://www.google.com", "realestate": "http://www.google.com"}}
{"name": "Baringhup", "shim": "baringhup", "rating_safety": 6, "coords": {"lat": -36.9605286, "lng": 143.9813554}, "rating_affordability": 1, "population": 12345, "outlinks": {"domain": "http://www.google.com", "realestate": "http://www.google.com"}}
{"name": "Barjarg", "shim": "barjarg", "rating_safety": 10, "coords": {"lat": -36.9242225, "lng": 145.995043}, "rating_affordability": 1, "population": 12345, "outlinks": {"domain": "http://www.google.com", "realestate": "http://www.google.com"}}
{"name": "Barkers Creek", "shim": "barkers-creek", "rating_safety": 5, "coords": {"lat": -37.0050906, "lng": 144.221785}, "rating_affordability": 5, "population": 12345, "outlinks": {"domain": "http://www.google.com", "realestate": "http://www.google.com"}}
{"name": "Barkly", "shim": "barkly", "rating_safety": 9, "coords": {"lat": -36.9453536, "lng": 143.2210793}, "rating_affordability": 1, "population": 12345, "outlinks": {"domain": "http://www.google.com", "realestate": "http://www.google.com"}}
{"name": "Barkstead", "shim": "barkstead", "rating_safety": 10, "coords": {"lat": -37.4603542, "lng": 144.0865809}, "rating_affordability": 1, "population": 12345, "outlinks": {"domain": "http://www.google.com", "realestate": "http://www.google.com"}}
{"name": "Barmah", "shim": "barmah", "rating_safety": 4, "coords": {"lat": -36.0175, "lng": 144.965278}, "rating_affordability": 3, "population": 12345, "outlinks": {"domain": "http://www.google.com", "realestate": "http://www.google.com"}}
{"name": "Barnadown", "shim": "barnadown", "rating_safety": 10, "coords": {"lat": -36.6558714, "lng": 144.515303}, "rating_affordability": 1, "population": 12345, "outlinks": {"domain": "http://www.google.com", "realestate": "http://www.google.com"}}
{"name": "Barnawartha North", "shim": "barnawartha-north", "rating_safety": 5, "coords": {"lat": -36.065526, "lng": 146.745223}, "rating_affordability": 4, "population": 12345, "outlinks": {"domain": "http://www.google.com", "realestate": "http://www.google.com"}}
{"name": "Barnawartha", "shim": "barnawartha", "rating_safety": 3, "coords": {"lat": -36.112928, "lng": 146.655462}, "rating_affordability": 7, "population": 12345, "outlinks": {"domain": "http://www.google.com", "realestate": "http://www.google.com"}}
{"name": "Baromi", "shim": "baromi", "rating_safety": 8, "coords": {"lat": -38.4024468, "lng": 146.1770148}, "rating_affordability": 5, "population": 12345, "outlinks": {"domain": "http://www.google.com", "realestate": "http://www.google.com"}}
{"name": "Barongarook West", "shim": "barongarook-west", "rating_safety": 6, "coords": {"lat": -38.4388581, "lng": 143.5527423}, "rating_affordability": 1, "population": 12345, "outlinks": {"domain": "http://www.google.com", "realestate": "http://www.google.com"}}
{"name": "Barongarook", "shim": "barongarook", "rating_safety": 5, "coords": {"lat": -38.4255405, "lng": 143.6176937}, "rating_affordability": 5, "population": 12345, "outlinks": {"domain": "http://www.google.com", "realestate": "http://www.google.com"}}
{"name": "Barrabool", "shim": "barrabool", "rating_safety": 6, "coords": {"lat": -38.1605382, "lng": 144.2484344}, "rating_affordability": 1, "population": 12345, "outlinks": {"domain": "http://www.google.com", "realestate": "http://www.google.com"}}
{"name": "Barrakee", "shim": "barrakee", "rating_safety": 10, "coords": {"lat": -36.2914398, "lng": 143.4666497}, "rating_affordability": 1, "population": 12345, "outlinks": {"domain": "http://www.google.com", "realestate": "http://www.google.com"}}
{"name": "Barramunga", "shim": "barramunga", "rating_safety": 10, "coords": {"lat": -38.5770348, "lng": 143.6874429}, "rating_affordability": 1, "population": 12345, "outlinks": {"domain": "http://www.google.com", "realestate": "http://www.google.com"}}
{"name": "Barraport West", "shim": "barraport-west", "rating_safety": 10, "coords": {"lat": -36.0175961, "lng": 143.5344625}, "rating_affordability": 1, "population": 12345, "outlinks": {"domain": "http://www.google.com", "realestate": "http://www.google.com"}}
{"name": "Barraport", "shim": "barraport", "rating_safety": 10, "coords": {"lat": -36.0307362, "lng": 143.6965895}, "rating_affordability": 1, "population": 12345, "outlinks": {"domain": "http://www.google.com", "realestate": "http://www.google.com"}}
{"name": "Barrys Reef", "shim": "barrys-reef", "rating_safety": 9, "coords": {"lat": -37.4562523, "lng": 144.3193914}, "rating_affordability": 1, "population": 12345, "outlinks": {"domain": "http://www.google.com", "realestate": "http://www.google.com"}}
{"name": "Barunah Park", "shim": "barunah-park", "rating_safety": 10, "coords": {"lat": -38.0223718, "lng": 143.8556892}, "rating_affordability": 1, "population": 12345, "outlinks": {"domain": "http://www.google.com", "realestate": "http://www.google.com"}}
{"name": "Barunah Plains", "shim": "barunah-plains", "rating_safety": 10, "coords": {"lat": -38.0262896, "lng": 143.8030749}, "rating_affordability": 1, "population": 12345, "outlinks": {"domain": "http://www.google.com", "realestate": "http://www.google.com"}}
{"name": "Barwidgee", "shim": "barwidgee", "rating_safety": 7, "coords": {"lat": -36.5098367, "lng": 146.7770185}, "rating_affordability": 3, "population": 12345, "outlinks": {"domain": "http://www.google.com", "realestate": "http://www.google.com"}}
{"name": "Barwite", "shim": "barwite", "rating_safety": 8, "coords": {"lat": -36.9850215, "lng": 146.1789907}, "rating_affordability": 8, "population": 12345, "outlinks": {"domain": "http://www.google.com", "realestate": "http://www.google.com"}}
{"name": "Barwon Downs", "shim": "barwon-downs", "rating_safety": 7, "coords": {"lat": -38.4705238, "lng": 143.767428}, "rating_affordability": 1, "population": 12345, "outlinks": {"domain": "http://www.google.com", "realestate": "http://www.google.com"}}
{"name": "Barwon Heads", "shim": "barwon-heads", "rating_safety": 2, "coords": {"lat": -38.2739835, "lng": 144.4862111}, "rating_affordability": 9, "population": 12345, "outlinks": {"domain": "http://www.google.com", "realestate": "http://www.google.com"}}
{"name": "Basalt", "shim": "basalt", "rating_safety": 10, "coords": {"lat": -37.3088919, "lng": 144.1038619}, "rating_affordability": 1, "population": 12345, "outlinks": {"domain": "http://www.google.com", "realestate": "http://www.google.com"}}
{"name": "Bass", "shim": "bass", "rating_safety": 4, "coords": {"lat": -38.4659346, "lng": 145.4755485}, "rating_affordability": 4, "population": 12345, "outlinks": {"domain": "http://www.google.com", "realestate": "http://www.google.com"}}
{"name": "Batesford", "shim": "batesford", "rating_safety": 3, "coords": {"lat": -38.0899186, "lng": 144.2847434}, "rating_affordability": 1, "population": 12345, "outlinks": {"domain": "http://www.google.com", "realestate": "http://www.google.com"}}
{"name": "Bathumi", "shim": "bathumi", "rating_safety": 10, "coords": {"lat": -36.038333, "lng": 146.084722}, "rating_affordability": 1, "population": 12345, "outlinks": {"domain": "http://www.google.com", "realestate": "http://www.google.com"}}
{"name": "Baw Baw Village", "shim": "baw-baw-village", "rating_safety": 10, "coords": {"lat": -37.8414614, "lng": 146.2580015}, "rating_affordability": 1, "population": 12345, "outlinks": {"domain": "http://www.google.com", "realestate": "http://www.google.com"}}
{"name": "Baw Baw", "shim": "baw-baw", "rating_safety": 10, "coords": {"lat": -38.035394, "lng": 146.0249982}, "rating_affordability": 1, "population": 12345, "outlinks": {"domain": "http://www.google.com", "realestate": "http://www.google.com"}}
{"name": "Baxter", "shim": "baxter", "rating_safety": 2, "coords": {"lat": -38.196, "lng": 145.157}, "rating_affordability": 8, "population": 12345, "outlinks": {"domain": "http://www.google.com", "realestate": "http://www.google.com"}}
{"name": "Bayindeen", "shim": "bayindeen", "rating_safety": 10, "coords": {"lat": -37.3087622, "lng": 143.1583326}, "rating_affordability": 1, "population": 12345, "outlinks": {"domain": "http://www.google.com", "realestate": "http://www.google.com"}}
{"name": "Bayles", "shim": "bayles", "rating_safety": 4, "coords": {"lat": -38.182, "lng": 145.575}, "rating_affordability": 7, "population": 12345, "outlinks": {"domain": "http://www.google.com", "realestate": "http://www.google.com"}}
{"name": "Baynton East", "shim": "baynton-east", "rating_safety": 10, "coords": {"lat": -37.119812, "lng": 144.7138406}, "rating_affordability": 1, "population": 12345, "outlinks": {"domain": "http://www.google.com", "realestate": "http://www.google.com"}}
{"name": "Baynton", "shim": "baynton", "rating_safety": 8, "coords": {"lat": -37.1661839, "lng": 144.6996603}, "rating_affordability": 1, "population": 12345, "outlinks": {"domain": "http://www.google.com", "realestate": "http://www.google.com"}}
{"name": "Bayswater North", "shim": "bayswater-north", "rating_safety": 1, "coords": {"lat": -37.827, "lng": 145.28}, "rating_affordability": 7, "population": 12345, "outlinks": {"domain": "http://www.google.com", "realestate": "http://www.google.com"}}
{"name": "Bayswater", "shim": "bayswater", "rating_safety": 1, "coords": {"lat": -37.843, "lng": 145.268}, "rating_affordability": 8, "population": 12345, "outlinks": {"domain": "http://www.google.com", "realestate": "http://www.google.com"}}
{"name": "Beaconsfield Upper", "shim": "beaconsfield-upper", "rating_safety": 3, "coords": {"lat": -37.9982063, "lng": 145.4237893}, "rating_affordability": 7, "population": 12345, "outlinks": {"domain": "http://www.google.com", "realestate": "http://www.google.com"}}
{"name": "Beaconsfield", "shim": "beaconsfield", "rating_safety": 10, "coords": {"lat": -37.875, "lng": 144.782}, "rating_affordability": 7, "population": 12345, "outlinks": {"domain": "http://www.google.com", "realestate": "http://www.google.com"}}
{"name": "Bealiba", "shim": "bealiba", "rating_safety": 5, "coords": {"lat": -36.8139252, "lng": 143.535837}, "rating_affordability": 2, "population": 12345, "outlinks": {"domain": "http://www.google.com", "realestate": "http://www.google.com"}}
{"name": "Bearii", "shim": "bearii", "rating_safety": 8, "coords": {"lat": -35.9, "lng": 145.333333}, "rating_affordability": 1, "population": 12345, "outlinks": {"domain": "http://www.google.com", "realestate": "http://www.google.com"}}
{"name": "Bears Lagoon", "shim": "bears-lagoon", "rating_safety": 8, "coords": {"lat": -36.3439954, "lng": 143.9748939}, "rating_affordability": 1, "population": 12345, "outlinks": {"domain": "http://www.google.com", "realestate": "http://www.google.com"}}
{"name": "Beauchamp", "shim": "beauchamp", "rating_safety": 10, "coords": {"lat": -35.6119647, "lng": 143.5989591}, "rating_affordability": 1, "population": 12345, "outlinks": {"domain": "http://www.google.com", "realestate": "http://www.google.com"}}
{"name": "Beaufort", "shim": "beaufort", "rating_safety": 2, "coords": {"lat": -37.4228524, "lng": 143.3703651}, "rating_affordability": 4, "population": 12345, "outlinks": {"domain": "http://www.google.com", "realestate": "http://www.google.com"}}
{"name": "Beaumaris", "shim": "beaumaris", "rating_safety": 10, "coords": {"lat": -37.875, "lng": 144.782}, "rating_affordability": 9, "population": 12345, "outlinks": {"domain": "http://www.google.com", "realestate": "http://www.google.com"}}
{"name": "Beazleys Bridge", "shim": "beazleys-bridge", "rating_safety": 10, "coords": {"lat": -36.6932262, "lng": 143.1638709}, "rating_affordability": 1, "population": 12345, "outlinks": {"domain": "http://www.google.com", "realestate": "http://www.google.com"}}
{"name": "Beeac", "shim": "beeac", "rating_safety": 5, "coords": {"lat": -38.1772101, "lng": 143.6420207}, "rating_affordability": 4, "population": 12345, "outlinks": {"domain": "http://www.google.com", "realestate": "http://www.google.com"}}
{"name": "Beech Forest", "shim": "beech-forest", "rating_safety": 8, "coords": {"lat": -38.633333, "lng": 143.566667}, "rating_affordability": 1, "population": 12345, "outlinks": {"domain": "http://www.google.com", "realestate": "http://www.google.com"}}
{"name": "Beechworth", "shim": "beechworth", "rating_safety": 2, "coords": {"lat": -36.3533015, "lng": 146.6877247}, "rating_affordability": 4, "population": 12345, "outlinks": {"domain": "http://www.google.com", "realestate": "http://www.google.com"}}
{"name": "Beenak", "shim": "beenak", "rating_safety": 9, "coords": {"lat": -37.8986154, "lng": 145.6090481}, "rating_affordability": 1, "population": 12345, "outlinks": {"domain": "http://www.google.com", "realestate": "http://www.google.com"}}
{"name": "Belgrave Heights", "shim": "belgrave-heights", "rating_safety": 3, "coords": {"lat": -37.923, "lng": 145.34}, "rating_affordability": 9, "population": 12345, "outlinks": {"domain": "http://www.google.com", "realestate": "http://www.google.com"}}
{"name": "Belgrave South", "shim": "belgrave-south", "rating_safety": 3, "coords": {"lat": -37.941795, "lng": 145.356068}, "rating_affordability": 7, "population": 12345, "outlinks": {"domain": "http://www.google.com", "realestate": "http://www.google.com"}}
{"name": "Belgrave", "shim": "belgrave", "rating_safety": 2, "coords": {"lat": -37.912067, "lng": 145.3558}, "rating_affordability": 9, "population": 12345, "outlinks": {"domain": "http://www.google.com", "realestate": "http://www.google.com"}}
{"name": "Bell Park", "shim": "bell-park", "rating_safety": 2, "coords": {"lat": -38.11, "lng": 144.338}, "rating_affordability": 7, "population": 12345, "outlinks": {"domain": "http://www.google.com", "realestate": "http://www.google.com"}}
{"name": "Bell Post Hill", "shim": "bell-post-hill", "rating_safety": 2, "coords": {"lat": -38.1, "lng": 144.328}, "rating_affordability": 7, "population": 12345, "outlinks": {"domain": "http://www.google.com", "realestate": "http://www.google.com"}}
{"name": "Bellarine", "shim": "bellarine", "rating_safety": 5, "coords": {"lat": -38.132222, "lng": 144.619722}, "rating_affordability": 1, "population": 12345, "outlinks": {"domain": "http://www.google.com", "realestate": "http://www.google.com"}}
{"name": "Bellbird Creek", "shim": "bellbird-creek", "rating_safety": 10, "coords": {"lat": -37.6535235, "lng": 148.8137548}, "rating_affordability": 1, "population": 12345, "outlinks": {"domain": "http://www.google.com", "realestate": "http://www.google.com"}}
{"name": "Bellbrae", "shim": "bellbrae", "rating_safety": 4, "coords": {"lat": -38.333333, "lng": 144.266667}, "rating_affordability": 7, "population": 12345, "outlinks": {"domain": "http://www.google.com", "realestate": "http://www.google.com"}}
{"name": "Bellbridge", "shim": "bellbridge", "rating_safety": 5, "coords": {"lat": -36.098056, "lng": 147.058889}, "rating_affordability": 8, "population": 12345, "outlinks": {"domain": "http://www.google.com", "realestate": "http://www.google.com"}}
{"name": "Bellellen", "shim": "bellellen", "rating_safety": 10, "coords": {"lat": -37.1263346, "lng": 142.6824015}, "rating_affordability": 1, "population": 12345, "outlinks": {"domain": "http://www.google.com", "realestate": "http://www.google.com"}}
{"name": "Bellfield", "shim": "bellfield", "rating_safety": 10, "coords": {"lat": -37.754, "lng": 145.045}, "rating_affordability": 1, "population": 12345, "outlinks": {"domain": "http://www.google.com", "realestate": "http://www.google.com"}}
{"name": "Bells Beach", "shim": "bells-beach", "rating_safety": 5, "coords": {"lat": -38.366944, "lng": 144.284722}, "rating_affordability": 1, "population": 12345, "outlinks": {"domain": "http://www.google.com", "realestate": "http://www.google.com"}}
{"name": "Belmont", "shim": "belmont", "rating_safety": 10, "coords": {"lat": -37.841, "lng": 144.849}, "rating_affordability": 7, "population": 12345, "outlinks": {"domain": "http://www.google.com", "realestate": "http://www.google.com"}}
{"name": "Bemm River", "shim": "bemm-river", "rating_safety": 7, "coords": {"lat": -37.7590189, "lng": 148.9606122}, "rating_affordability": 1, "population": 12345, "outlinks": {"domain": "http://www.google.com", "realestate": "http://www.google.com"}}
{"name": "Bena", "shim": "bena", "rating_safety": 8, "coords": {"lat": -38.411111, "lng": 145.761389}, "rating_affordability": 4, "population": 12345, "outlinks": {"domain": "http://www.google.com", "realestate": "http://www.google.com"}}
{"name": "Benalla", "shim": "benalla", "rating_safety": 1, "coords": {"lat": -36.5462177, "lng": 145.963353}, "rating_affordability": 4, "population": 12345, "outlinks": {"domain": "http://www.google.com", "realestate": "http://www.google.com"}}
{"name": "Benambra", "shim": "benambra", "rating_safety": 6, "coords": {"lat": -36.9180065, "lng": 147.7736105}, "rating_affordability": 10, "population": 12345, "outlinks": {"domain": "http://www.google.com", "realestate": "http://www.google.com"}}
{"name": "Benayeo", "shim": "benayeo", "rating_safety": 10, "coords": {"lat": -36.8507348, "lng": 141.0955096}, "rating_affordability": 1, "population": 12345, "outlinks": {"domain": "http://www.google.com", "realestate": "http://www.google.com"}}
{"name": "Bend Of Islands", "shim": "bend-of-islands", "rating_safety": 4, "coords": {"lat": -37.6980733, "lng": 145.2756505}, "rating_affordability": 5, "population": 12345, "outlinks": {"domain": "http://www.google.com", "realestate": "http://www.google.com"}}
{"name": "Bendigo", "shim": "bendigo", "rating_safety": 1, "coords": {"lat": -36.7570157, "lng": 144.2793906}, "rating_affordability": 5, "population": 12345, "outlinks": {"domain": "http://www.google.com", "realestate": "http://www.google.com"}}
{"name": "Bendoc", "shim": "bendoc", "rating_safety": 8, "coords": {"lat": -37.1347462, "lng": 148.9105482}, "rating_affordability": 10, "population": 12345, "outlinks": {"domain": "http://www.google.com", "realestate": "http://www.google.com"}}
{"name": "Bengworden", "shim": "bengworden", "rating_safety": 6, "coords": {"lat": -37.9749719, "lng": 147.4629594}, "rating_affordability": 1, "population": 12345, "outlinks": {"domain": "http://www.google.com", "realestate": "http://www.google.com"}}
{"name": "Benjeroop", "shim": "benjeroop", "rating_safety": 7, "coords": {"lat": -35.4988701, "lng": 143.8288607}, "rating_affordability": 1, "population": 12345, "outlinks": {"domain": "http://www.google.com", "realestate": "http://www.google.com"}}
{"name": "Benloch", "shim": "benloch", "rating_safety": 6, "coords": {"lat": -37.2029416, "lng": 144.6862995}, "rating_affordability": 10, "population": 12345, "outlinks": {"domain": "http://www.google.com", "realestate": "http://www.google.com"}}
{"name": "Bennison", "shim": "bennison", "rating_safety": 10, "coords": {"lat": -38.6707482, "lng": 146.2733747}, "rating_affordability": 1, "population": 12345, "outlinks": {"domain": "http://www.google.com", "realestate": "http://www.google.com"}}
{"name": "Bentleigh East", "shim": "bentleigh-east", "rating_safety": 1, "coords": {"lat": -37.921, "lng": 145.067}, "rating_affordability": 9, "population": 12345, "outlinks": {"domain": "http://www.google.com", "realestate": "http://www.google.com"}}
{"name": "Bentleigh", "shim": "bentleigh", "rating_safety": 1, "coords": {"lat": -37.922, "lng": 145.036}, "rating_affordability": 9, "population": 12345, "outlinks": {"domain": "http://www.google.com", "realestate": "http://www.google.com"}}
{"name": "Benwerrin", "shim": "benwerrin", "rating_safety": 10, "coords": {"lat": -38.4865203, "lng": 143.9130375}, "rating_affordability": 1, "population": 12345, "outlinks": {"domain": "http://www.google.com", "realestate": "http://www.google.com"}}
{"name": "Beremboke", "shim": "beremboke", "rating_safety": 8, "coords": {"lat": -37.783333, "lng": 144.25}, "rating_affordability": 1, "population": 12345, "outlinks": {"domain": "http://www.google.com", "realestate": "http://www.google.com"}}
{"name": "Berrimal", "shim": "berrimal", "rating_safety": 10, "coords": {"lat": -36.4821643, "lng": 143.5022376}, "rating_affordability": 1, "population": 12345, "outlinks": {"domain": "http://www.google.com", "realestate": "http://www.google.com"}}
{"name": "Berringa", "shim": "berringa", "rating_safety": 7, "coords": {"lat": -37.7760414, "lng": 143.6840179}, "rating_affordability": 1, "population": 12345, "outlinks": {"domain": "http://www.google.com", "realestate": "http://www.google.com"}}
{"name": "Berringama", "shim": "berringama", "rating_safety": 10, "coords": {"lat": -36.2164826, "lng": 147.6541763}, "rating_affordability": 1, "population": 12345, "outlinks": {"domain": "http://www.google.com", "realestate": "http://www.google.com"}}
{"name": "Berriwillock", "shim": "berriwillock", "rating_safety": 7, "coords": {"lat": -35.6392202, "lng": 142.9909246}, "rating_affordability": 2, "population": 12345, "outlinks": {"domain": "http://www.google.com", "realestate": "http://www.google.com"}}
{"name": "Berrybank", "shim": "berrybank", "rating_safety": 8, "coords": {"lat": -37.9825676, "lng": 143.4763603}, "rating_affordability": 1, "population": 12345, "outlinks": {"domain": "http://www.google.com", "realestate": "http://www.google.com"}}
{"name": "Berrys Creek", "shim": "berrys-creek", "rating_safety": 6, "coords": {"lat": -38.41889, "lng": 146.080755}, "rating_affordability": 4, "population": 12345, "outlinks": {"domain": "http://www.google.com", "realestate": "http://www.google.com"}}
{"name": "Berwick", "shim": "berwick", "rating_safety": 1, "coords": {"lat": -38.031, "lng": 145.344}, "rating_affordability": 8, "population": 12345, "outlinks": {"domain": "http://www.google.com", "realestate": "http://www.google.com"}}
{"name": "Bessiebelle", "shim": "bessiebelle", "rating_safety": 7, "coords": {"lat": -38.1598513, "lng": 141.9705844}, "rating_affordability": 1, "population": 12345, "outlinks": {"domain": "http://www.google.com", "realestate": "http://www.google.com"}}
{"name": "Bet Bet", "shim": "bet-bet", "rating_safety": 6, "coords": {"lat": -36.9217288, "lng": 143.7531872}, "rating_affordability": 1, "population": 12345, "outlinks": {"domain": "http://www.google.com", "realestate": "http://www.google.com"}}
{"name": "Bete Bolong North", "shim": "bete-bolong-north", "rating_safety": 10, "coords": {"lat": -37.5892422, "lng": 148.290893}, "rating_affordability": 1, "population": 12345, "outlinks": {"domain": "http://www.google.com", "realestate": "http://www.google.com"}}
{"name": "Bete Bolong", "shim": "bete-bolong", "rating_safety": 4, "coords": {"lat": -37.7092607, "lng": 148.3937975}, "rating_affordability": 3, "population": 12345, "outlinks": {"domain": "http://www.google.com", "realestate": "http://www.google.com"}}
{"name": "Bethanga", "shim": "bethanga", "rating_safety": 5, "coords": {"lat": -36.1374717, "lng": 147.0837049}, "rating_affordability": 5, "population": 12345, "outlinks": {"domain": "http://www.google.com", "realestate": "http://www.google.com"}}
{"name": "Betley", "shim": "betley", "rating_safety": 8, "coords": {"lat": -36.9182683, "lng": 143.7965958}, "rating_affordability": 1, "population": 12345, "outlinks": {"domain": "http://www.google.com", "realestate": "http://www.google.com"}}
{"name": "Beulah", "shim": "beulah", "rating_safety": 5, "coords": {"lat": -35.938056, "lng": 142.42}, "rating_affordability": 1, "population": 12345, "outlinks": {"domain": "http://www.google.com", "realestate": "http://www.google.com"}}
{"name": "Beverford", "shim": "beverford", "rating_safety": 6, "coords": {"lat": -35.237778, "lng": 143.481667}, "rating_affordability": 3, "population": 12345, "outlinks": {"domain": "http://www.google.com", "realestate": "http://www.google.com"}}
{"name": "Beveridge", "shim": "beveridge", "rating_safety": 2, "coords": {"lat": -37.494525, "lng": 145.0325382}, "rating_affordability": 8, "population": 12345, "outlinks": {"domain": "http://www.google.com", "realestate": "http://www.google.com"}}
{"name": "Big Desert", "shim": "big-desert", "rating_safety": 10, "coords": {"lat": -35.620921, "lng": 141.4851939}, "rating_affordability": 1, "population": 12345, "outlinks": {"domain": "http://www.google.com", "realestate": "http://www.google.com"}}
{"name": "Big Hill", "shim": "big-hill", "rating_safety": 5, "coords": {"lat": -38.480278, "lng": 144.005}, "rating_affordability": 1, "population": 12345, "outlinks": {"domain": "http://www.google.com", "realestate": "http://www.google.com"}}
{"name": "Big Pats Creek", "shim": "big-pats-creek", "rating_safety": 9, "coords": {"lat": -37.7638978, "lng": 145.750833}, "rating_affordability": 1, "population": 12345, "outlinks": {"domain": "http://www.google.com", "realestate": "http://www.google.com"}}
{"name": "Biggara", "shim": "biggara", "rating_safety": 9, "coords": {"lat": -36.3200378, "lng": 148.0371007}, "rating_affordability": 1, "population": 12345, "outlinks": {"domain": "http://www.google.com", "realestate": "http://www.google.com"}}
{"name": "Billabong", "shim": "billabong", "rating_safety": 10, "coords": {"lat": -37.2588834, "lng": 146.82798}, "rating_affordability": 1, "population": 12345, "outlinks": {"domain": "http://www.google.com", "realestate": "http://www.google.com"}}
{"name": "Bimbourie", "shim": "bimbourie", "rating_safety": 10, "coords": {"lat": -35.3120424, "lng": 142.7691482}, "rating_affordability": 1, "population": 12345, "outlinks": {"domain": "http://www.google.com", "realestate": "http://www.google.com"}}
{"name": "Bindi", "shim": "bindi", "rating_safety": 10, "coords": {"lat": -37.1429517, "lng": 147.8151071}, "rating_affordability": 1, "population": 12345, "outlinks": {"domain": "http://www.google.com", "realestate": "http://www.google.com"}}
{"name": "Binginwarri", "shim": "binginwarri", "rating_safety": 6, "coords": {"lat": -38.5970662, "lng": 146.4544127}, "rating_affordability": 1, "population": 12345, "outlinks": {"domain": "http://www.google.com", "realestate": "http://www.google.com"}}
{"name": "Bingo Munjie", "shim": "bingo-munjie", "rating_safety": 10, "coords": {"lat": -37.0162321, "lng": 147.5748824}, "rating_affordability": 1, "population": 12345, "outlinks": {"domain": "http://www.google.com", "realestate": "http://www.google.com"}}
{"name": "Birchip West", "shim": "birchip-west", "rating_safety": 10, "coords": {"lat": -36.0436803, "lng": 142.8076291}, "rating_affordability": 1, "population": 12345, "outlinks": {"domain": "http://www.google.com", "realestate": "http://www.google.com"}}
{"name": "Birchip", "shim": "birchip", "rating_safety": 4, "coords": {"lat": -35.9833179, "lng": 142.9145594}, "rating_affordability": 2, "population": 12345, "outlinks": {"domain": "http://www.google.com", "realestate": "http://www.google.com"}}
{"name": "Birdwoodton", "shim": "birdwoodton", "rating_safety": 4, "coords": {"lat": -34.196389, "lng": 142.058611}, "rating_affordability": 5, "population": 12345, "outlinks": {"domain": "http://www.google.com", "realestate": "http://www.google.com"}}
{"name": "Birregurra", "shim": "birregurra", "rating_safety": 4, "coords": {"lat": -38.3065561, "lng": 143.7952389}, "rating_affordability": 4, "population": 12345, "outlinks": {"domain": "http://www.google.com", "realestate": "http://www.google.com"}}
{"name": "Bittern", "shim": "bittern", "rating_safety": 2, "coords": {"lat": -38.339, "lng": 145.175}, "rating_affordability": 7, "population": 12345, "outlinks": {"domain": "http://www.google.com", "realestate": "http://www.google.com"}}
{"name": "Black Hill", "shim": "black-hill", "rating_safety": 4, "coords": {"lat": -37.5502577, "lng": 143.875336}, "rating_affordability": 5, "population": 12345, "outlinks": {"domain": "http://www.google.com", "realestate": "http://www.google.com"}}
{"name": "Black Range", "shim": "black-range", "rating_safety": 7, "coords": {"lat": -37.1415364, "lng": 142.8016378}, "rating_affordability": 4, "population": 12345, "outlinks": {"domain": "http://www.google.com", "realestate": "http://www.google.com"}}
{"name": "Black Rock", "shim": "black-rock", "rating_safety": 2, "coords": {"lat": -37.972, "lng": 145.021}, "rating_affordability": 9, "population": 12345, "outlinks": {"domain": "http://www.google.com", "realestate": "http://www.google.com"}}
{"name": "Blackburn North", "shim": "blackburn-north", "rating_safety": 2, "coords": {"lat": -37.81, "lng": 145.152}, "rating_affordability": 8, "population": 12345, "outlinks": {"domain": "http://www.google.com", "realestate": "http://www.google.com"}}
{"name": "Blackburn South", "shim": "blackburn-south", "rating_safety": 2, "coords": {"lat": -37.838, "lng": 145.144}, "rating_affordability": 9, "population": 12345, "outlinks": {"domain": "http://www.google.com", "realestate": "http://www.google.com"}}
{"name": "Blackburn", "shim": "blackburn", "rating_safety": 1, "coords": {"lat": -37.826, "lng": 145.151}, "rating_affordability": 9, "population": 12345, "outlinks": {"domain": "http://www.google.com", "realestate": "http://www.google.com"}}
{"name": "Blackheath", "shim": "blackheath", "rating_safety": 3, "coords": {"lat": -36.4877414, "lng": 142.3244986}, "rating_affordability": 1, "population": 12345, "outlinks": {"domain": "http://www.google.com", "realestate": "http://www.google.com"}}
{"name": "Blackwarry", "shim": "blackwarry", "rating_safety": 10, "coords": {"lat": -38.4193287, "lng": 146.606259}, "rating_affordability": 1, "population": 12345, "outlinks": {"domain": "http://www.google.com", "realestate": "http://www.google.com"}}
{"name": "Blackwood", "shim": "blackwood", "rating_safety": 5, "coords": {"lat": -37.4834268, "lng": 144.3026601}, "rating_affordability": 4, "population": 12345, "outlinks": {"domain": "http://www.google.com", "realestate": "http://www.google.com"}}
{"name": "Blairgowrie", "shim": "blairgowrie", "rating_safety": 2, "coords": {"lat": -38.36, "lng": 144.769}, "rating_affordability": 7, "population": 12345, "outlinks": {"domain": "http://www.google.com", "realestate": "http://www.google.com"}}
{"name": "Blakeville", "shim": "blakeville", "rating_safety": 8, "coords": {"lat": -37.5008056, "lng": 144.2105217}, "rating_affordability": 1, "population": 12345, "outlinks": {"domain": "http://www.google.com", "realestate": "http://www.google.com"}}
{"name": "Blampied", "shim": "blampied", "rating_safety": 10, "coords": {"lat": -37.366667, "lng": 144.05}, "rating_affordability": 1, "population": 12345, "outlinks": {"domain": "http://www.google.com", "realestate": "http://www.google.com"}}
{"name": "Blind Bight", "shim": "blind-bight", "rating_safety": 3, "coords": {"lat": -38.2138627, "lng": 145.339912}, "rating_affordability": 7, "population": 12345, "outlinks": {"domain": "http://www.google.com", "realestate": "http://www.google.com"}}
{"name": "Blowhard", "shim": "blowhard", "rating_safety": 8, "coords": {"lat": -37.434517, "lng": 143.7911684}, "rating_affordability": 1, "population": 12345, "outlinks": {"domain": "http://www.google.com", "realestate": "http://www.google.com"}}
{"name": "Bo Peep", "shim": "bo-peep", "rating_safety": 9, "coords": {"lat": -37.5310454, "lng": 143.6742331}, "rating_affordability": 1, "population": 12345, "outlinks": {"domain": "http://www.google.com", "realestate": "http://www.google.com"}}
{"name": "Bobinawarrah", "shim": "bobinawarrah", "rating_safety": 8, "coords": {"lat": -36.5119792, "lng": 146.4782938}, "rating_affordability": 3, "population": 12345, "outlinks": {"domain": "http://www.google.com", "realestate": "http://www.google.com"}}
{"name": "Bochara", "shim": "bochara", "rating_safety": 7, "coords": {"lat": -37.6993137, "lng": 141.8991762}, "rating_affordability": 1, "population": 12345, "outlinks": {"domain": "http://www.google.com", "realestate": "http://www.google.com"}}
{"name": "Bogong", "shim": "bogong", "rating_safety": 10, "coords": {"lat": -36.8025742, "lng": 147.2241735}, "rating_affordability": 1, "population": 12345, "outlinks": {"domain": "http://www.google.com", "realestate": "http://www.google.com"}}
{"name": "Boho South", "shim": "boho-south", "rating_safety": 9, "coords": {"lat": -36.7972508, "lng": 145.7929572}, "rating_affordability": 1, "population": 12345, "outlinks": {"domain": "http://www.google.com", "realestate": "http://www.google.com"}}
{"name": "Boho", "shim": "boho", "rating_safety": 8, "coords": {"lat": -36.6787636, "lng": 145.7752094}, "rating_affordability": 1, "population": 12345, "outlinks": {"domain": "http://www.google.com", "realestate": "http://www.google.com"}}
{"name": "Boigbeat", "shim": "boigbeat", "rating_safety": 10, "coords": {"lat": -35.5622958, "lng": 142.9364681}, "rating_affordability": 1, "population": 12345, "outlinks": {"domain": "http://www.google.com", "realestate": "http://www.google.com"}}
{"name": "Boinka", "shim": "boinka", "rating_safety": 10, "coords": {"lat": -35.2044399, "lng": 141.5929146}, "rating_affordability": 1, "population": 12345, "outlinks": {"domain": "http://www.google.com", "realestate": "http://www.google.com"}}
{"name": "Boisdale", "shim": "boisdale", "rating_safety": 6, "coords": {"lat": -37.8840703, "lng": 146.9945377}, "rating_affordability": 10, "population": 12345, "outlinks": {"domain": "http://www.google.com", "realestate": "http://www.google.com"}}
{"name": "Bolangum", "shim": "bolangum", "rating_safety": 10, "coords": {"lat": -36.7216988, "lng": 142.9935072}, "rating_affordability": 1, "population": 12345, "outlinks": {"domain": "http://www.google.com", "realestate": "http://www.google.com"}}
{"name": "Bolinda", "shim": "bolinda", "rating_safety": 7, "coords": {"lat": -37.433333, "lng": 144.75}, "rating_affordability": 1, "population": 12345, "outlinks": {"domain": "http://www.google.com", "realestate": "http://www.google.com"}}
{"name": "Bolton", "shim": "bolton", "rating_safety": 10, "coords": {"lat": -34.967947, "lng": 142.8799207}, "rating_affordability": 1, "population": 12345, "outlinks": {"domain": "http://www.google.com", "realestate": "http://www.google.com"}}
{"name": "Bolwarra", "shim": "bolwarra", "rating_safety": 5, "coords": {"lat": -38.2844214, "lng": 141.6092866}, "rating_affordability": 10, "population": 12345, "outlinks": {"domain": "http://www.google.com", "realestate": "http://www.google.com"}}
{"name": "Bolwarrah", "shim": "bolwarrah", "rating_safety": 10, "coords": {"lat": -37.5207531, "lng": 144.0830163}, "rating_affordability": 1, "population": 12345, "outlinks": {"domain": "http://www.google.com", "realestate": "http://www.google.com"}}
{"name": "Bona Vista", "shim": "bona-vista", "rating_safety": 9, "coords": {"lat": -38.2075076, "lng": 145.963705}, "rating_affordability": 4, "population": 12345, "outlinks": {"domain": "http://www.google.com", "realestate": "http://www.google.com"}}
{"name": "Bonang", "shim": "bonang", "rating_safety": 10, "coords": {"lat": -37.1764711, "lng": 148.6825219}, "rating_affordability": 1, "population": 12345, "outlinks": {"domain": "http://www.google.com", "realestate": "http://www.google.com"}}
{"name": "Bonbeach", "shim": "bonbeach", "rating_safety": 2, "coords": {"lat": -38.062, "lng": 145.12}, "rating_affordability": 7, "population": 12345, "outlinks": {"domain": "http://www.google.com", "realestate": "http://www.google.com"}}
{"name": "Bonegilla", "shim": "bonegilla", "rating_safety": 4, "coords": {"lat": -36.1304904, "lng": 146.9865317}, "rating_affordability": 3, "population": 12345, "outlinks": {"domain": "http://www.google.com", "realestate": "http://www.google.com"}}
{"name": "Boneo", "shim": "boneo", "rating_safety": 5, "coords": {"lat": -38.413, "lng": 144.888}, "rating_affordability": 7, "population": 12345, "outlinks": {"domain": "http://www.google.com", "realestate": "http://www.google.com"}}
{"name": "Bonn", "shim": "bonn", "rating_safety": 10, "coords": {"lat": -36.4098645, "lng": 144.7326224}, "rating_affordability": 1, "population": 12345, "outlinks": {"domain": "http://www.google.com", "realestate": "http://www.google.com"}}
{"name": "Bonnie Brook", "shim": "bonnie-brook", "rating_safety": 10, "coords": {"lat": -36.4098645, "lng": 144.7326224}, "rating_affordability": 1, "population": 12345, "outlinks": {"domain": "http://www.google.com", "realestate": "http://www.google.com"}}
{"name": "Bonnie Doon", "shim": "bonnie-doon", "rating_safety": 4, "coords": {"lat": -37.0868493, "lng": 145.8615582}, "rating_affordability": 4, "population": 12345, "outlinks": {"domain": "http://www.google.com", "realestate": "http://www.google.com"}}
{"name": "Bonshaw", "shim": "bonshaw", "rating_safety": 6, "coords": {"lat": -37.6034859, "lng": 143.8155947}, "rating_affordability": 1, "population": 12345, "outlinks": {"domain": "http://www.google.com", "realestate": "http://www.google.com"}}
{"name": "Bookaar", "shim": "bookaar", "rating_safety": 6, "coords": {"lat": -38.1501749, "lng": 143.1309121}, "rating_affordability": 3, "population": 12345, "outlinks": {"domain": "http://www.google.com", "realestate": "http://www.google.com"}}
{"name": "Boola", "shim": "boola", "rating_safety": 10, "coords": {"lat": -38.0485684, "lng": 146.4605619}, "rating_affordability": 1, "population": 12345, "outlinks": {"domain": "http://www.google.com", "realestate": "http://www.google.com"}}
{"name": "Boolarong", "shim": "boolarong", "rating_safety": 10, "coords": {"lat": -38.5813154, "lng": 146.2387806}, "rating_affordability": 1, "population": 12345, "outlinks": {"domain": "http://www.google.com", "realestate": "http://www.google.com"}}
{"name": "Boolarra South", "shim": "boolarra-south", "rating_safety": 7, "coords": {"lat": -38.419077, "lng": 146.2666008}, "rating_affordability": 1, "population": 12345, "outlinks": {"domain": "http://www.google.com", "realestate": "http://www.google.com"}}
{"name": "Boolarra", "shim": "boolarra", "rating_safety": 3, "coords": {"lat": -38.383333, "lng": 146.266667}, "rating_affordability": 10, "population": 12345, "outlinks": {"domain": "http://www.google.com", "realestate": "http://www.google.com"}}
{"name": "Boole Poole", "shim": "boole-poole", "rating_safety": 10, "coords": {"lat": -37.8993247, "lng": 147.7902372}, "rating_affordability": 1, "population": 12345, "outlinks": {"domain": "http://www.google.com", "realestate": "http://www.google.com"}}
{"name": "Boolite", "shim": "boolite", "rating_safety": 9, "coords": {"lat": -36.3422079, "lng": 142.6663706}, "rating_affordability": 1, "population": 12345, "outlinks": {"domain": "http://www.google.com", "realestate": "http://www.google.com"}}
{"name": "Boomahnoomoonah", "shim": "boomahnoomoonah", "rating_safety": 10, "coords": {"lat": -36.1379842, "lng": 146.0803668}, "rating_affordability": 1, "population": 12345, "outlinks": {"domain": "http://www.google.com", "realestate": "http://www.google.com"}}
{"name": "Boonah", "shim": "boonah", "rating_safety": 10, "coords": {"lat": -38.4220465, "lng": 143.960275}, "rating_affordability": 1, "population": 12345, "outlinks": {"domain": "http://www.google.com", "realestate": "http://www.google.com"}}
{"name": "Boorcan", "shim": "boorcan", "rating_safety": 7, "coords": {"lat": -38.218356, "lng": 143.0448854}, "rating_affordability": 3, "population": 12345, "outlinks": {"domain": "http://www.google.com", "realestate": "http://www.google.com"}}
{"name": "Boorhaman East", "shim": "boorhaman-east", "rating_safety": 10, "coords": {"lat": -36.1502928, "lng": 146.2932875}, "rating_affordability": 1, "population": 12345, "outlinks": {"domain": "http://www.google.com", "realestate": "http://www.google.com"}}
{"name": "Boorhaman North", "shim": "boorhaman-north", "rating_safety": 10, "coords": {"lat": -36.0937184, "lng": 146.2234366}, "rating_affordability": 1, "population": 12345, "outlinks": {"domain": "http://www.google.com", "realestate": "http://www.google.com"}}
{"name": "Boorhaman", "shim": "boorhaman", "rating_safety": 10, "coords": {"lat": -36.2319711, "lng": 146.3048179}, "rating_affordability": 1, "population": 12345, "outlinks": {"domain": "http://www.google.com", "realestate": "http://www.google.com"}}
{"name": "Boorolite", "shim": "boorolite", "rating_safety": 7, "coords": {"lat": -37.1355776, "lng": 146.2181999}, "rating_affordability": 1, "population": 12345, "outlinks": {"domain": "http://www.google.com", "realestate": "http://www.google.com"}}
{"name": "Boorool", "shim": "boorool", "rating_safety": 10, "coords": {"lat": -38.4463913, "lng": 146.0378905}, "rating_affordability": 1, "population": 12345, "outlinks": {"domain": "http://www.google.com", "realestate": "http://www.google.com"}}
{"name": "Boort", "shim": "boort", "rating_safety": 4, "coords": {"lat": -36.1169559, "lng": 143.7250526}, "rating_affordability": 3, "population": 12345, "outlinks": {"domain": "http://www.google.com", "realestate": "http://www.google.com"}}
{"name": "Boosey", "shim": "boosey", "rating_safety": 6, "coords": {"lat": -36.0030907, "lng": 145.7964042}, "rating_affordability": 1, "population": 12345, "outlinks": {"domain": "http://www.google.com", "realestate": "http://www.google.com"}}
{"name": "Boralma", "shim": "boralma", "rating_safety": 8, "coords": {"lat": -36.2465182, "lng": 146.404078}, "rating_affordability": 1, "population": 12345, "outlinks": {"domain": "http://www.google.com", "realestate": "http://www.google.com"}}
{"name": "Bornes Hill", "shim": "bornes-hill", "rating_safety": 4, "coords": {"lat": -37.5848686, "lng": 142.581128}, "rating_affordability": 1, "population": 12345, "outlinks": {"domain": "http://www.google.com", "realestate": "http://www.google.com"}}
{"name": "Boronia", "shim": "boronia", "rating_safety": 1, "coords": {"lat": -37.862, "lng": 145.286}, "rating_affordability": 8, "population": 12345, "outlinks": {"domain": "http://www.google.com", "realestate": "http://www.google.com"}}
{"name": "Borung", "shim": "borung", "rating_safety": 7, "coords": {"lat": -36.308012, "lng": 143.8037198}, "rating_affordability": 1, "population": 12345, "outlinks": {"domain": "http://www.google.com", "realestate": "http://www.google.com"}}
{"name": "Bostocks Creek", "shim": "bostocks-creek", "rating_safety": 9, "coords": {"lat": -38.3019538, "lng": 143.1164553}, "rating_affordability": 1, "population": 12345, "outlinks": {"domain": "http://www.google.com", "realestate": "http://www.google.com"}}
{"name": "Botanic Ridge", "shim": "botanic-ridge", "rating_safety": 2, "coords": {"lat": -38.144, "lng": 145.267}, "rating_affordability": 9, "population": 12345, "outlinks": {"domain": "http://www.google.com", "realestate": "http://www.google.com"}}
{"name": "Boundary Bend", "shim": "boundary-bend", "rating_safety": 6, "coords": {"lat": -34.7163155, "lng": 143.143354}, "rating_affordability": 1, "population": 12345, "outlinks": {"domain": "http://www.google.com", "realestate": "http://www.google.com"}}
{"name": "Bowenvale", "shim": "bowenvale", "rating_safety": 6, "coords": {"lat": -36.9961863, "lng": 143.698961}, "rating_affordability": 1, "population": 12345, "outlinks": {"domain": "http://www.google.com", "realestate": "http://www.google.com"}}
{"name": "Boweya North", "shim": "boweya-north", "rating_safety": 10, "coords": {"lat": -36.2159557, "lng": 146.1265609}, "rating_affordability": 1, "population": 12345, "outlinks": {"domain": "http://www.google.com", "realestate": "http://www.google.com"}}
{"name": "Boweya", "shim": "boweya", "rating_safety": 9, "coords": {"lat": -36.2159557, "lng": 146.1265609}, "rating_affordability": 1, "population": 12345, "outlinks": {"domain": "http://www.google.com", "realestate": "http://www.google.com"}}
{"name": "Bowmans Forest", "shim": "bowmans-forest", "rating_safety": 10, "coords": {"lat": -36.4694093, "lng": 146.6377088}, "rating_affordability": 1, "population": 12345, "outlinks": {"domain": "http://www.google.com", "realestate": "http://www.google.com"}}
{"name": "Bowser", "shim": "bowser", "rating_safety": 9, "coords": {"lat": -36.30639, "lng": 146.3628409}, "rating_affordability": 1, "population": 12345, "outlinks": {"domain": "http://www.google.com", "realestate": "http://www.google.com"}}
{"name": "Box Hill North", "shim": "box-hill-north", "rating_safety": 2, "coords": {"lat": -37.807, "lng": 145.12}, "rating_affordability": 9, "population": 12345, "outlinks": {"domain": "http://www.google.com", "realestate": "http://www.google.com"}}
{"name": "Box Hill South", "shim": "box-hill-south", "rating_safety": 2, "coords": {"lat": -37.836, "lng": 145.124}, "rating_affordability": 9, "population": 12345, "outlinks": {"domain": "http://www.google.com", "realestate": "http://www.google.com"}}
{"name": "Box Hill", "shim": "box-hill", "rating_safety": 10, "coords": {"lat": -36.9470859, "lng": 144.7227565}, "rating_affordability": 9, "population": 12345, "outlinks": {"domain": "http://www.google.com", "realestate": "http://www.google.com"}}
{"name": "Boxwood", "shim": "boxwood", "rating_safety": 10, "coords": {"lat": -36.308272, "lng": 145.7884151}, "rating_affordability": 1, "population": 12345, "outlinks": {"domain": "http://www.google.com", "realestate": "http://www.google.com"}}
{"name": "Bradford", "shim": "bradford", "rating_safety": 10, "coords": {"lat": -36.9292943, "lng": 144.0883677}, "rating_affordability": 1, "population": 12345, "outlinks": {"domain": "http://www.google.com", "realestate": "http://www.google.com"}}
{"name": "Bradvale", "shim": "bradvale", "rating_safety": 9, "coords": {"lat": -37.7902778, "lng": 143.3127046}, "rating_affordability": 1, "population": 12345, "outlinks": {"domain": "http://www.google.com", "realestate": "http://www.google.com"}}
{"name": "Braeside", "shim": "braeside", "rating_safety": 5, "coords": {"lat": -38.0, "lng": 145.125}, "rating_affordability": 1, "population": 12345, "outlinks": {"domain": "http://www.google.com", "realestate": "http://www.google.com"}}
{"name": "Brandy Creek", "shim": "brandy-creek", "rating_safety": 10, "coords": {"lat": -38.1006308, "lng": 145.9163703}, "rating_affordability": 1, "population": 12345, "outlinks": {"domain": "http://www.google.com", "realestate": "http://www.google.com"}}
{"name": "Branxholme", "shim": "branxholme", "rating_safety": 4, "coords": {"lat": -37.8604777, "lng": 141.7988033}, "rating_affordability": 3, "population": 12345, "outlinks": {"domain": "http://www.google.com", "realestate": "http://www.google.com"}}
{"name": "Bravington", "shim": "bravington", "rating_safety": 10, "coords": {"lat": -38.0837116, "lng": 145.9219378}, "rating_affordability": 1, "population": 12345, "outlinks": {"domain": "http://www.google.com", "realestate": "http://www.google.com"}}
{"name": "Braybrook", "shim": "braybrook", "rating_safety": 1, "coords": {"lat": -37.786, "lng": 144.856}, "rating_affordability": 7, "population": 12345, "outlinks": {"domain": "http://www.google.com", "realestate": "http://www.google.com"}}
{"name": "Breakaway Creek", "shim": "breakaway-creek", "rating_safety": 8, "coords": {"lat": -38.0137602, "lng": 141.8096919}, "rating_affordability": 1, "population": 12345, "outlinks": {"domain": "http://www.google.com", "realestate": "http://www.google.com"}}
{"name": "Breakwater", "shim": "breakwater", "rating_safety": 2, "coords": {"lat": -38.182, "lng": 144.375}, "rating_affordability": 7, "population": 12345, "outlinks": {"domain": "http://www.google.com", "realestate": "http://www.google.com"}}
{"name": "Breamlea", "shim": "breamlea", "rating_safety": 5, "coords": {"lat": -38.3, "lng": 144.383333}, "rating_affordability": 7, "population": 12345, "outlinks": {"domain": "http://www.google.com", "realestate": "http://www.google.com"}}
{"name": "Brenanah", "shim": "brenanah", "rating_safety": 10, "coords": {"lat": -36.5576225, "lng": 143.6992998}, "rating_affordability": 1, "population": 12345, "outlinks": {"domain": "http://www.google.com", "realestate": "http://www.google.com"}}
{"name": "Brewster", "shim": "brewster", "rating_safety": 8, "coords": {"lat": -37.5186998, "lng": 143.5200413}, "rating_affordability": 1, "population": 12345, "outlinks": {"domain": "http://www.google.com", "realestate": "http://www.google.com"}}
{"name": "Briagolong", "shim": "briagolong", "rating_safety": 3, "coords": {"lat": -37.822072, "lng": 147.0717292}, "rating_affordability": 5, "population": 12345, "outlinks": {"domain": "http://www.google.com", "realestate": "http://www.google.com"}}
{"name": "Briar Hill", "shim": "briar-hill", "rating_safety": 2, "coords": {"lat": -37.708, "lng": 145.115}, "rating_affordability": 7, "population": 12345, "outlinks": {"domain": "http://www.google.com", "realestate": "http://www.google.com"}}
{"name": "Bridge Creek", "shim": "bridge-creek", "rating_safety": 7, "coords": {"lat": -36.9540594, "lng": 146.1205023}, "rating_affordability": 3, "population": 12345, "outlinks": {"domain": "http://www.google.com", "realestate": "http://www.google.com"}}
{"name": "Bridgewater North", "shim": "bridgewater-north", "rating_safety": 4, "coords": {"lat": -36.5547664, "lng": 143.9983577}, "rating_affordability": 3, "population": 12345, "outlinks": {"domain": "http://www.google.com", "realestate": "http://www.google.com"}}
{"name": "Bridgewater On Loddon", "shim": "bridgewater-on-loddon", "rating_safety": 4, "coords": {"lat": -36.6047192, "lng": 143.9405609}, "rating_affordability": 4, "population": 12345, "outlinks": {"domain": "http://www.google.com", "realestate": "http://www.google.com"}}
{"name": "Bridgewater", "shim": "bridgewater", "rating_safety": 5, "coords": {"lat": -36.6047192, "lng": 143.9405609}, "rating_affordability": 1, "population": 12345, "outlinks": {"domain": "http://www.google.com", "realestate": "http://www.google.com"}}
{"name": "Bright", "shim": "bright", "rating_safety": 3, "coords": {"lat": -36.7321521, "lng": 146.9836221}, "rating_affordability": 4, "population": 12345, "outlinks": {"domain": "http://www.google.com", "realestate": "http://www.google.com"}}
{"name": "Brighton East", "shim": "brighton-east", "rating_safety": 1, "coords": {"lat": -37.916, "lng": 145.015}, "rating_affordability": 9, "population": 12345, "outlinks": {"domain": "http://www.google.com", "realestate": "http://www.google.com"}}
{"name": "Brighton", "shim": "brighton", "rating_safety": 10, "coords": {"lat": -37.857, "lng": 145.021}, "rating_affordability": 9, "population": 12345, "outlinks": {"domain": "http://www.google.com", "realestate": "http://www.google.com"}}
{"name": "Brim", "shim": "brim", "rating_safety": 5, "coords": {"lat": -36.0337275, "lng": 142.413818}, "rating_affordability": 1, "population": 12345, "outlinks": {"domain": "http://www.google.com", "realestate": "http://www.google.com"}}
{"name": "Brimboal", "shim": "brimboal", "rating_safety": 10, "coords": {"lat": -37.3764603, "lng": 141.3924197}, "rating_affordability": 1, "population": 12345, "outlinks": {"domain": "http://www.google.com", "realestate": "http://www.google.com"}}
{"name": "Brimin", "shim": "brimin", "rating_safety": 10, "coords": {"lat": -36.0670425, "lng": 146.3047796}, "rating_affordability": 1, "population": 12345, "outlinks": {"domain": "http://www.google.com", "realestate": "http://www.google.com"}}
{"name": "Brimpaen", "shim": "brimpaen", "rating_safety": 8, "coords": {"lat": -37.0254527, "lng": 142.2064967}, "rating_affordability": 1, "population": 12345, "outlinks": {"domain": "http://www.google.com", "realestate": "http://www.google.com"}}
{"name": "Bringalbert", "shim": "bringalbert", "rating_safety": 10, "coords": {"lat": -36.8707068, "lng": 141.1415349}, "rating_affordability": 1, "population": 12345, "outlinks": {"domain": "http://www.google.com", "realestate": "http://www.google.com"}}
{"name": "Brit Brit", "shim": "brit-brit", "rating_safety": 10, "coords": {"lat": -37.4123739, "lng": 141.7416806}, "rating_affordability": 1, "population": 12345, "outlinks": {"domain": "http://www.google.com", "realestate": "http://www.google.com"}}
{"name": "Broadford", "shim": "broadford", "rating_safety": 2, "coords": {"lat": -37.2110528, "lng": 145.063089}, "rating_affordability": 7, "population": 12345, "outlinks": {"domain": "http://www.google.com", "realestate": "http://www.google.com"}}
{"name": "Broadlands", "shim": "broadlands", "rating_safety": 10, "coords": {"lat": -37.8468121, "lng": 147.6799159}, "rating_affordability": 1, "population": 12345, "outlinks": {"domain": "http://www.google.com", "realestate": "http://www.google.com"}}
{"name": "Broadmeadows", "shim": "broadmeadows", "rating_safety": 1, "coords": {"lat": -37.685, "lng": 144.925}, "rating_affordability": 7, "population": 12345, "outlinks": {"domain": "http://www.google.com", "realestate": "http://www.google.com"}}
{"name": "Broadwater", "shim": "broadwater", "rating_safety": 9, "coords": {"lat": -38.1376982, "lng": 142.0288242}, "rating_affordability": 1, "population": 12345, "outlinks": {"domain": "http://www.google.com", "realestate": "http://www.google.com"}}
{"name": "Brodribb River", "shim": "brodribb-river", "rating_safety": 9, "coords": {"lat": -37.7691734, "lng": 148.5486737}, "rating_affordability": 1, "population": 12345, "outlinks": {"domain": "http://www.google.com", "realestate": "http://www.google.com"}}
{"name": "Broken Creek", "shim": "broken-creek", "rating_safety": 10, "coords": {"lat": -36.4324114, "lng": 145.8861029}, "rating_affordability": 1, "population": 12345, "outlinks": {"domain": "http://www.google.com", "realestate": "http://www.google.com"}}
{"name": "Bromley", "shim": "bromley", "rating_safety": 7, "coords": {"lat": -36.8857797, "lng": 143.7891332}, "rating_affordability": 1, "population": 12345, "outlinks": {"domain": "http://www.google.com", "realestate": "http://www.google.com"}}
{"name": "Brookfield", "shim": "brookfield", "rating_safety": 1, "coords": {"lat": -37.6999038, "lng": 144.5382417}, "rating_affordability": 7, "population": 12345, "outlinks": {"domain": "http://www.google.com", "realestate": "http://www.google.com"}}
{"name": "Brooklyn", "shim": "brooklyn", "rating_safety": 2, "coords": {"lat": -37.813, "lng": 144.841}, "rating_affordability": 8, "population": 12345, "outlinks": {"domain": "http://www.google.com", "realestate": "http://www.google.com"}}
{"name": "Brookville", "shim": "brookville", "rating_safety": 10, "coords": {"lat": -37.3125256, "lng": 147.640009}, "rating_affordability": 1, "population": 12345, "outlinks": {"domain": "http://www.google.com", "realestate": "http://www.google.com"}}
{"name": "Broomfield", "shim": "broomfield", "rating_safety": 6, "coords": {"lat": -37.3862675, "lng": 143.905224}, "rating_affordability": 1, "population": 12345, "outlinks": {"domain": "http://www.google.com", "realestate": "http://www.google.com"}}
{"name": "Broughton", "shim": "broughton", "rating_safety": 4, "coords": {"lat": -36.1486994, "lng": 141.3473436}, "rating_affordability": 1, "population": 12345, "outlinks": {"domain": "http://www.google.com", "realestate": "http://www.google.com"}}
{"name": "Brown Hill", "shim": "brown-hill", "rating_safety": 10, "coords": {"lat": -37.866944, "lng": 145.083056}, "rating_affordability": 5, "population": 12345, "outlinks": {"domain": "http://www.google.com", "realestate": "http://www.google.com"}}
{"name": "Browns Plains", "shim": "browns-plains", "rating_safety": 7, "coords": {"lat": -36.0554544, "lng": 146.6366569}, "rating_affordability": 1, "population": 12345, "outlinks": {"domain": "http://www.google.com", "realestate": "http://www.google.com"}}
{"name": "Bruarong", "shim": "bruarong", "rating_safety": 8, "coords": {"lat": -36.4246056, "lng": 146.9068284}, "rating_affordability": 1, "population": 12345, "outlinks": {"domain": "http://www.google.com", "realestate": "http://www.google.com"}}
{"name": "Brucknell", "shim": "brucknell", "rating_safety": 8, "coords": {"lat": -38.4659878, "lng": 142.9043021}, "rating_affordability": 1, "population": 12345, "outlinks": {"domain": "http://www.google.com", "realestate": "http://www.google.com"}}
{"name": "Brumby", "shim": "brumby", "rating_safety": 10, "coords": {"lat": -37.0161223, "lng": 148.0696982}, "rating_affordability": 1, "population": 12345, "outlinks": {"domain": "http://www.google.com", "realestate": "http://www.google.com"}}
{"name": "Brunswick East", "shim": "brunswick-east", "rating_safety": 1, "coords": {"lat": -37.776, "lng": 144.974}, "rating_affordability": 9, "population": 12345, "outlinks": {"domain": "http://www.google.com", "realestate": "http://www.google.com"}}
{"name": "Brunswick West", "shim": "brunswick-west", "rating_safety": 1, "coords": {"lat": -37.761, "lng": 144.943}, "rating_affordability": 7, "population": 12345, "outlinks": {"domain": "http://www.google.com", "realestate": "http://www.google.com"}}
{"name": "Brunswick", "shim": "brunswick", "rating_safety": 1, "coords": {"lat": -37.7667, "lng": 144.9628}, "rating_affordability": 9, "population": 12345, "outlinks": {"domain": "http://www.google.com", "realestate": "http://www.google.com"}}
{"name": "Bruthen", "shim": "bruthen", "rating_safety": 4, "coords": {"lat": -37.7135193, "lng": 147.8339017}, "rating_affordability": 5, "population": 12345, "outlinks": {"domain": "http://www.google.com", "realestate": "http://www.google.com"}}
{"name": "Buangor", "shim": "buangor", "rating_safety": 5, "coords": {"lat": -37.3759756, "lng": 143.1581525}, "rating_affordability": 2, "population": 12345, "outlinks": {"domain": "http://www.google.com", "realestate": "http://www.google.com"}}
{"name": "Buchan South", "shim": "buchan-south", "rating_safety": 7, "coords": {"lat": -37.539995, "lng": 148.1239027}, "rating_affordability": 1, "population": 12345, "outlinks": {"domain": "http://www.google.com", "realestate": "http://www.google.com"}}
{"name": "Buchan", "shim": "buchan", "rating_safety": 5, "coords": {"lat": -37.5121541, "lng": 148.165845}, "rating_affordability": 1, "population": 12345, "outlinks": {"domain": "http://www.google.com", "realestate": "http://www.google.com"}}
{"name": "Buckland", "shim": "buckland", "rating_safety": 9, "coords": {"lat": -36.7500523, "lng": 146.8796103}, "rating_affordability": 5, "population": 12345, "outlinks": {"domain": "http://www.google.com", "realestate": "http://www.google.com"}}
{"name": "Buckley Swamp", "shim": "buckley-swamp", "rating_safety": 10, "coords": {"lat": -37.8582975, "lng": 142.0834692}, "rating_affordability": 1, "population": 12345, "outlinks": {"domain": "http://www.google.com", "realestate": "http://www.google.com"}}
{"name": "Buckley", "shim": "buckley", "rating_safety": 6, "coords": {"lat": -38.2444345, "lng": 144.0895595}, "rating_affordability": 1, "population": 12345, "outlinks": {"domain": "http://www.google.com", "realestate": "http://www.google.com"}}
{"name": "Buckrabanyule", "shim": "buckrabanyule", "rating_safety": 10, "coords": {"lat": -36.3391603, "lng": 143.5965629}, "rating_affordability": 1, "population": 12345, "outlinks": {"domain": "http://www.google.com", "realestate": "http://www.google.com"}}
{"name": "Budgee Budgee", "shim": "budgee-budgee", "rating_safety": 10, "coords": {"lat": -37.5459324, "lng": 147.0956433}, "rating_affordability": 1, "population": 12345, "outlinks": {"domain": "http://www.google.com", "realestate": "http://www.google.com"}}
{"name": "Budgeree", "shim": "budgeree", "rating_safety": 7, "coords": {"lat": -38.4201593, "lng": 146.3411655}, "rating_affordability": 1, "population": 12345, "outlinks": {"domain": "http://www.google.com", "realestate": "http://www.google.com"}}
{"name": "Budgerum East", "shim": "budgerum-east", "rating_safety": 10, "coords": {"lat": -35.7701957, "lng": 143.6518434}, "rating_affordability": 1, "population": 12345, "outlinks": {"domain": "http://www.google.com", "realestate": "http://www.google.com"}}
{"name": "Buffalo River", "shim": "buffalo-river", "rating_safety": 6, "coords": {"lat": -36.6216581, "lng": 146.6906735}, "rating_affordability": 4, "population": 12345, "outlinks": {"domain": "http://www.google.com", "realestate": "http://www.google.com"}}
{"name": "Buffalo", "shim": "buffalo", "rating_safety": 5, "coords": {"lat": -38.6557161, "lng": 146.0689038}, "rating_affordability": 5, "population": 12345, "outlinks": {"domain": "http://www.google.com", "realestate": "http://www.google.com"}}
{"name": "Bulart", "shim": "bulart", "rating_safety": 8, "coords": {"lat": -37.5305772, "lng": 141.9979873}, "rating_affordability": 1, "population": 12345, "outlinks": {"domain": "http://www.google.com", "realestate": "http://www.google.com"}}
{"name": "Buldah", "shim": "buldah", "rating_safety": 10, "coords": {"lat": -37.2788614, "lng": 149.1440045}, "rating_affordability": 1, "population": 12345, "outlinks": {"domain": "http://www.google.com", "realestate": "http://www.google.com"}}
{"name": "Bulga", "shim": "bulga", "rating_safety": 10, "coords": {"lat": -35.3048165, "lng": 143.345083}, "rating_affordability": 1, "population": 12345, "outlinks": {"domain": "http://www.google.com", "realestate": "http://www.google.com"}}
{"name": "Bulgana", "shim": "bulgana", "rating_safety": 10, "coords": {"lat": -37.1420099, "lng": 142.997146}, "rating_affordability": 1, "population": 12345, "outlinks": {"domain": "http://www.google.com", "realestate": "http://www.google.com"}}
{"name": "Bulla", "shim": "bulla", "rating_safety": 3, "coords": {"lat": -37.636944, "lng": 144.803056}, "rating_affordability": 10, "population": 12345, "outlinks": {"domain": "http://www.google.com", "realestate": "http://www.google.com"}}
{"name": "Bullaharre", "shim": "bullaharre", "rating_safety": 4, "coords": {"lat": -38.347841, "lng": 143.137301}, "rating_affordability": 5, "population": 12345, "outlinks": {"domain": "http://www.google.com", "realestate": "http://www.google.com"}}
{"name": "Bullarook", "shim": "bullarook", "rating_safety": 8, "coords": {"lat": -37.5295427, "lng": 143.9988766}, "rating_affordability": 1, "population": 12345, "outlinks": {"domain": "http://www.google.com", "realestate": "http://www.google.com"}}
{"name": "Bullarto South", "shim": "bullarto-south", "rating_safety": 10, "coords": {"lat": -37.4233362, "lng": 144.2187155}, "rating_affordability": 1, "population": 12345, "outlinks": {"domain": "http://www.google.com", "realestate": "http://www.google.com"}}
{"name": "Bullarto", "shim": "bullarto", "rating_safety": 8, "coords": {"lat": -37.3990211, "lng": 144.2125766}, "rating_affordability": 1, "population": 12345, "outlinks": {"domain": "http://www.google.com", "realestate": "http://www.google.com"}}
{"name": "Bulleen", "shim": "bulleen", "rating_safety": 1, "coords": {"lat": -37.77, "lng": 145.09}, "rating_affordability": 9, "population": 12345, "outlinks": {"domain": "http://www.google.com", "realestate": "http://www.google.com"}}
{"name": "Bullengarook", "shim": "bullengarook", "rating_safety": 4, "coords": {"lat": -37.516667, "lng": 144.483333}, "rating_affordability": 1, "population": 12345, "outlinks": {"domain": "http://www.google.com", "realestate": "http://www.google.com"}}
{"name": "Bullioh", "shim": "bullioh", "rating_safety": 9, "coords": {"lat": -36.1937039, "lng": 147.3858095}, "rating_affordability": 1, "population": 12345, "outlinks": {"domain": "http://www.google.com", "realestate": "http://www.google.com"}}
{"name": "Bullumwaal", "shim": "bullumwaal", "rating_safety": 10, "coords": {"lat": -37.6716417, "lng": 147.5657205}, "rating_affordability": 1, "population": 12345, "outlinks": {"domain": "http://www.google.com", "realestate": "http://www.google.com"}}
{"name": "Buln Buln East", "shim": "buln-buln-east", "rating_safety": 8, "coords": {"lat": -38.07216, "lng": 146.0082778}, "rating_affordability": 1, "population": 12345, "outlinks": {"domain": "http://www.google.com", "realestate": "http://www.google.com"}}
{"name": "Buln Buln", "shim": "buln-buln", "rating_safety": 5, "coords": {"lat": -38.083333, "lng": 145.933333}, "rating_affordability": 5, "population": 12345, "outlinks": {"domain": "http://www.google.com", "realestate": "http://www.google.com"}}
{"name": "Bumberrah", "shim": "bumberrah", "rating_safety": 8, "coords": {"lat": -37.7900179, "lng": 147.8339099}, "rating_affordability": 1, "population": 12345, "outlinks": {"domain": "http://www.google.com", "realestate": "http://www.google.com"}}
{"name": "Bunbartha", "shim": "bunbartha", "rating_safety": 5, "coords": {"lat": -36.2409082, "lng": 145.3537565}, "rating_affordability": 4, "population": 12345, "outlinks": {"domain": "http://www.google.com", "realestate": "http://www.google.com"}}
{"name": "Bundalaguah", "shim": "bundalaguah", "rating_safety": 6, "coords": {"lat": -38.0307598, "lng": 147.0217285}, "rating_affordability": 10, "population": 12345, "outlinks": {"domain": "http://www.google.com", "realestate": "http://www.google.com"}}
{"name": "Bundalong South", "shim": "bundalong-south", "rating_safety": 9, "coords": {"lat": -36.096111, "lng": 146.189444}, "rating_affordability": 1, "population": 12345, "outlinks": {"domain": "http://www.google.com", "realestate": "http://www.google.com"}}
{"name": "Bundalong", "shim": "bundalong", "rating_safety": 4, "coords": {"lat": -36.02935, "lng": 146.1302674}, "rating_affordability": 5, "population": 12345, "outlinks": {"domain": "http://www.google.com", "realestate": "http://www.google.com"}}
{"name": "Bundara", "shim": "bundara", "rating_safety": 10, "coords": {"lat": -36.9778224, "lng": 147.3397643}, "rating_affordability": 1, "population": 12345, "outlinks": {"domain": "http://www.google.com", "realestate": "http://www.google.com"}}
{"name": "Bunding", "shim": "bunding", "rating_safety": 7, "coords": {"lat": -37.5452578, "lng": 144.1744187},